SALE TYPE,PROPERTY TYPE,ADDRESS,CITY,STATE OR PROVINCE,ZIP OR POSTAL CODE,PRICE,BEDS,BATHS,LOCATION,SQUARE FEET,LOT SIZE,YEAR BUILT,DAYS ON MARKET,$/SQUARE FEET,HOA/MONTH,STATUS,NEXT OPEN HOUSE START TIME,NEXT OPEN HOUSE END TIME,URL (SEE http://www.redfin.com/buy-a-home/comparative-market-analysis FOR INFO ON PRICING),SOURCE,MLS#,FAVORITE,INTERESTED,LATITUDE,LONGITUDE
MLS Listing,Single Family Residential,1522 Meadow Way,Garland,TX,75042,310000,3,2,Golden Meadows 01,1305,7318,1968,1,238,,Active,,,http://www.redfin.com/TX/Garland/1522-Meadow-Way-75042/home/31400469,NTREIS,14669536,N,Y,32.9232612,-96.6510547
MLS Listing,Single Family Residential,809 Western Trl,Keller,TX,76248,265000,3,2,High Chaparral Add,1462,9583,1986,2,181,,Active,,,http://www.redfin.com/TX/Keller/809-Western-Trl-76248/home/32348319,NTREIS,14662915,N,Y,32.9221236,-97.2606039
MLS Listing,Townhouse,340 Legends Dr,Lewisville,TX,75057,275000,2,2.5,Main Street Village,1479,1917,2005,3,186,190,Active,,,http://www.redfin.com/TX/Lewisville/340-Legends-Dr-75057/home/32578992,NTREIS,14668171,N,Y,33.0448054,-96.9906148
MLS Listing,Single Family Residential,9408 Lakeway Dr,Denton,TX,76226,424900,3,2,Country Lakes North Ph 3a1,2118,7187,2017,3,201,68,Active,,,http://www.redfin.com/TX/Argyle/9408-Lakeway-Dr-76226/home/109696780,NTREIS,14665640,N,Y,33.1370709,-97.1840352
MLS Listing,Townhouse,2351 Allen St,Dallas,TX,75204,625000,3,2.5,Drexler,2466,2831,2003,3,253,81,Active,,,http://www.redfin.com/TX/Dallas/2351-Allen-St-75204/home/32195007,NTREIS,14661771,N,Y,32.796687,-96.7980649
MLS Listing,Townhouse,716 Woodbend Dr,Lewisville,TX,75067,248500,3,3,Creekside Twnhms Ph 1,1673,2657,1983,3,149,241,Active,September-18-2021 12:00 PM,September-18-2021 02:00 PM,http://www.redfin.com/TX/Lewisville/716-Woodbend-Dr-75067/home/33014997,NTREIS,14666584,N,Y,33.0341873,-97.00283
MLS Listing,Single Family Residential,3001 Robin Rd,Plano,TX,75075,439900,4,3,Dallas North Estates 12th Instl Fourth Sec,2936,10019,1973,3,150,,Active,,,http://www.redfin.com/TX/Plano/3001-Robin-Rd-75075/home/32157153,NTREIS,14657425,N,Y,33.013527,-96.7510511
MLS Listing,Single Family Residential,15196 Bardwell Ln,Frisco,TX,75035,1200000,6,4.5,75593,5149,13678,2013,3,233,50,Active,,,http://www.redfin.com/TX/Frisco/15196-Bardwell-Ln-75035/home/31825224,NTREIS,14665717,N,Y,33.171438,-96.7430014
MLS Listing,Single Family Residential,6759 E Mockingbird Ln,Dallas,TX,75214,500000,2,2,Cartuh Terrace,1545,7841,1956,4,324,,Active,September-13-2021 08:00 AM,September-13-2021 08:00 PM,http://www.redfin.com/TX/Dallas/6759-E-Mockingbird-Ln-75214/home/30822987,NTREIS,14661651,N,Y,32.8407666,-96.7440258
MLS Listing,Single Family Residential,1313 Coral Dr,Coppell,TX,75019,479000,4,2,Riverchase Estates,2551,8407,1993,4,188,13,Active,,,http://www.redfin.com/TX/Coppell/1313-Coral-Dr-75019/home/31270439,NTREIS,14665742,N,Y,32.9570441,-96.9516543
MLS Listing,Condo/Co-op,18240 Midway Rd #104,Dallas,TX,75287,194900,2,2.5,La Buea Vida,1029,,1982,4,189,316,Active,,,http://www.redfin.com/TX/Dallas/18240-Midway-Rd-75287/unit-104/home/31930208,NTREIS,14665748,N,Y,32.9997065,-96.8425713
MLS Listing,Single Family Residential,6932 Wake Forrest Dr,Dallas,TX,75214,515000,3,2,University Terrace Rev,1476,7492,1956,4,349,,Active,,,http://www.redfin.com/TX/Dallas/6932-Wake-Forrest-Dr-75214/home/30870154,NTREIS,14664294,N,Y,32.8539476,-96.73951
MLS Listing,Single Family Residential,3004 Foxcreek Dr,Richardson,TX,75082,428000,4,3,Foxboro Add Sec Two,2408,9148,1984,5,178,,Active,,,http://www.redfin.com/TX/Richardson/3004-Foxcreek-Dr-75082/home/32161062,NTREIS,14664674,N,Y,32.993667,-96.6953716
MLS Listing,Single Family Residential,6201 Melanie Dr,Fort Worth,TX,76131,275000,3,2,Alexandra Meadows,1844,6055,2005,5,149,28,Active,,,http://www.redfin.com/TX/Fort-Worth/6201-Melanie-Dr-76131/home/31118149,NTREIS,14663033,N,Y,32.8560362,-97.3305803
MLS Listing,Vacant Land,604 Stowe Ln,Lakewood Village,TX,75068,285000,0,,Lakewood Village Sec 5,,43604,,10,,,Active,,,http://www.redfin.com/TX/Lakewood-Village/604-Stowe-Ln-75068/home/59383302,NTREIS,14664021,N,Y,33.1371113,-96.9725734
MLS Listing,Single Family Residential,6615 Johns Ct,Arlington,TX,76016,425000,5,3.5,Daniel Sub,2921,7579,1989,11,145,,Active,,,http://www.redfin.com/TX/Arlington/6615-Johns-Ct-76016/home/32371271,NTREIS,14661959,N,Y,32.684789,-97.2140768
MLS Listing,Single Family Residential,1612 Babbling Brook Dr,Grand Prairie,TX,75050,395000,3,2,Hidden Creek Add,2489,9583,2002,11,159,44,Active,,,http://www.redfin.com/TX/Grand-Prairie/1612-Babbling-Brook-Dr-75050/home/32492606,NTREIS,14660362,N,Y,32.7643633,-97.0375363
MLS Listing,Single Family Residential,3128 Willing Ave,Fort Worth,TX,76110,235000,3,1,Ryan South John C Add,1416,6273,1929,12,166,,Active,September-19-2021 01:00 PM,September-19-2021 03:00 PM,http://www.redfin.com/TX/Fort-Worth/3128-Willing-Ave-76110/home/32013360,NTREIS,14650466,N,Y,32.7048358,-97.3420139
MLS Listing,Single Family Residential,7317 La Bolsa Dr,Dallas,TX,75248,590000,4,2,Prestonwood,2302,8538,1969,12,256,,Active,September-13-2021 08:00 AM,September-13-2021 08:00 PM,http://www.redfin.com/TX/Dallas/7317-La-Bolsa-Dr-75248/home/31078849,NTREIS,14660260,N,Y,32.9646935,-96.782235
MLS Listing,Single Family Residential,1532 Broken Bow Trl,Carrollton,TX,75007,500000,4,3,Indian Springs-Sec 3,2972,7449,1994,12,168,6,Active,,,http://www.redfin.com/TX/Carrollton/1532-Broken-Bow-Trl-75007/home/32840855,NTREIS,14637463,N,Y,33.0021785,-96.9274127
MLS Listing,Condo/Co-op,2301 Basil Dr Unit F108,Arlington,TX,76006,119900,2,1,Arlington Oaks Condo,794,2134,1981,12,151,258,Active,,,http://www.redfin.com/TX/Arlington/2301-Basil-Dr-76006/unit-F108/home/32296106,NTREIS,14661568,N,Y,32.7719922,-97.0689118
MLS Listing,Single Family Residential,2332 Materhorn Dr,Dallas,TX,75228,264900,3,1.5,Casa View Oaks 06,1149,7492,1954,13,231,,Active,,,http://www.redfin.com/TX/Dallas/2332-Materhorn-Dr-75228/home/31000233,NTREIS,14658554,N,Y,32.8280157,-96.6774908
MLS Listing,Single Family Residential,2956 Phyllis Ln,Farmers Branch,TX,75234,594900,4,2.5,Valley View Estates,2922,9757,2012,17,204,,Active,,,http://www.redfin.com/TX/Farmers-Branch/2956-Phyllis-Ln-75234/home/31342679,NTREIS,14658307,N,Y,32.9224585,-96.8784535
MLS Listing,Condo/Co-op,5335 Bent Tree Forest Dr #209,Dallas,TX,75248,139900,1,1,Bent Tree Forest Drive Condos,687,381847,1981,17,204,177,Active,,,http://www.redfin.com/TX/Dallas/5335-Bent-Tree-Forest-Dr-75248/unit-209/home/31131920,NTREIS,14658458,N,Y,32.965961,-96.816565
MLS Listing,Single Family Residential,12174 Shepherds Hill Ln,Frisco,TX,75035,420000,3,2.5,Shepherds Hill Add - Ph Iiia,2527,6098,2005,18,166,14,Active,September-18-2021 03:00 PM,September-18-2021 05:00 PM,http://www.redfin.com/TX/Frisco/12174-Shepherds-Hill-Ln-75035/home/31551344,NTREIS,14627529,N,Y,33.142359,-96.772508
MLS Listing,Single Family Residential,2838 Forestwood Dr,Arlington,TX,76006,399900,3,3,Villas Of Forest Hills,2195,8451,1996,18,182,133,Active,,,http://www.redfin.com/TX/Arlington/2838-Forestwood-Dr-76006/home/32435397,NTREIS,14636345,N,Y,32.786803,-97.0653255
MLS Listing,Condo/Co-op,4557 N O Connor Rd #1280,Irving,TX,75062,195000,2,2.5,Quail Run Condo,1167,747185,1975,19,167,376,Active,,,http://www.redfin.com/TX/Irving/4557-N-O-Connor-Rd-75062/unit-1280/home/31731444,NTREIS,14652448,N,Y,32.8592764,-96.9538254
MLS Listing,Single Family Residential,15288 Edna Ln,Frisco,TX,75035,850000,5,4,Villages Of Stonelake Estates #1b,4187,12676,2010,24,203,50,Active,September-13-2021 08:00 AM,September-13-2021 08:00 PM,http://www.redfin.com/TX/Frisco/15288-Edna-Ln-75035/home/31827929,NTREIS,14653788,N,Y,33.1670288,-96.7420815
MLS Listing,Single Family Residential,2718 Fountain View Blvd,Cedar Hill,TX,75104,800000,6,4.5,Lake Ridge Sec 04 Ph 01,4552,11326,2008,24,176,115,Active,,,http://www.redfin.com/TX/Cedar-Hill/2718-Fountain-View-Blvd-75104/home/30732120,NTREIS,14650550,N,Y,32.5793216,-97.0058737
MLS Listing,Single Family Residential,4404 Rain Forest Dr,Arlington,TX,76017,309999,3,2.5,South Forest Add,2492,7667,1985,25,124,,Active,,,http://www.redfin.com/TX/Arlington/4404-Rain-Forest-Dr-76017/home/32060178,NTREIS,14651958,N,Y,32.6622361,-97.1801836
MLS Listing,Single Family Residential,6428 Beckwith Ct,Dallas,TX,75248,449000,3,2,Pepperwood Estates,2188,6490,1978,26,205,,Active,,,http://www.redfin.com/TX/Dallas/6428-Beckwith-Ct-75248/home/31085049,NTREIS,14650961,N,Y,32.9790769,-96.7960226
MLS Listing,Single Family Residential,5205 South Dr,Fort Worth,TX,76132,228000,3,2,Westcliff Add,2030,11631,1965,26,112,,Active,,,http://www.redfin.com/TX/Fort-Worth/5205-South-Dr-76132/home/32176378,NTREIS,14649269,N,Y,32.6733381,-97.388865
MLS Listing,Single Family Residential,115 Ridgewood Dr,Coppell,TX,75019,679000,4,3.5,Huntington Ridge,3661,9017,1995,31,185,55,Active,,,http://www.redfin.com/TX/Coppell/115-Ridgewood-Dr-75019/home/31263599,NTREIS,14645378,N,Y,32.9749544,-96.9947912
MLS Listing,Single Family Residential,2509 Buttonwood Dr,Flower Mound,TX,75028,444900,4,3,Country Meadow Add Ph I,2756,8364,1996,31,161,28,Active,,,http://www.redfin.com/TX/Flower-Mound/2509-Buttonwood-Dr-75028/home/32870078,NTREIS,14647028,N,Y,33.0727732,-97.0679743
MLS Listing,Single Family Residential,411 E Tyler St,Richardson,TX,75081,400000,2,2,Walton 02,1978,14593,1955,38,202,,Active,,,http://www.redfin.com/TX/Richardson/411-E-Tyler-St-75081/home/31985523,NTREIS,14639932,N,Y,32.9495815,-96.7242504
MLS Listing,Single Family Residential,2101 Glen Forest Ln,Plano,TX,75023,349900,3,2,Parker Road Estates West 2-E,1908,10019,1976,40,183,,Active,,,http://www.redfin.com/TX/Plano/2101-Glen-Forest-Ln-75023/home/31914211,NTREIS,14638367,N,Y,33.0478685,-96.7336566
MLS Listing,Single Family Residential,12532 Avondale Ridge Dr,Fort Worth,TX,76179,815000,4,3.5,Resort On Eagle Mountain Lake,5732,21562,2006,45,142,150,Active,,,http://www.redfin.com/TX/Fort-Worth/12532-Avondale-Ridge-Dr-76179/home/32461349,NTREIS,14636213,N,Y,32.9568616,-97.4878008
MLS Listing,Single Family Residential,1237 Danville Dr,Richardson,TX,75080,385000,3,2,Richardson Heights 07,1540,7013,1957,45,250,,Active,September-13-2021 08:00 AM,September-13-2021 08:00 PM,http://www.redfin.com/TX/Richardson/1237-Danville-Dr-75080/home/31958172,NTREIS,14637783,N,Y,32.9493326,-96.7613395
MLS Listing,Condo/Co-op,1735 Wittington Pl #3105,Farmers Branch,TX,75234,359000,2,2,Gatherings at Mercer Crossing,1529,,2020,46,235,241,Active,,,http://www.redfin.com/TX/Farmers-Branch/1735-Wittington-Pl-75234/unit-3105/home/169130697,NTREIS,14634956,N,Y,32.916367,-96.9213327
MLS Listing,Single Family Residential,6217 Alpha Rd,Dallas,TX,75240,665000,4,3,Northwood Terrace,2920,15638,1960,47,228,,Active,September-13-2021 08:00 AM,September-13-2021 08:00 PM,http://www.redfin.com/TX/Dallas/6217-Alpha-Rd-75240/home/31015591,NTREIS,14634738,N,Y,32.9334542,-96.7996217
MLS Listing,Single Family Residential,7417 Foxgrass Pl,Fort Worth,TX,76123,489000,4,3,Tavolo Park,2234,8712,2020,47,219,54,Active,,,http://www.redfin.com/TX/Fort-Worth/7417-Foxgrass-PL-76123/home/173503048,NTREIS,14632868,N,Y,32.640409,-97.423233
MLS Listing,Single Family Residential,3537 Camino Trl,McKinney,TX,75070,575000,4,3,Craig Ranch North Ph 11,3507,6534,2007,49,164,59,Active,September-18-2021 12:00 PM,September-18-2021 02:00 PM,http://www.redfin.com/TX/McKinney/3537-Camino-Trl-75070/home/31753633,NTREIS,14632749,N,Y,33.1651261,-96.7255254
MLS Listing,Single Family Residential,5522 Harbor Town Dr,Dallas,TX,75287,1799000,5,6,Bent Tree North,7218,20909,1983,52,249,33,Active,,,http://www.redfin.com/TX/Dallas/5522-Harbor-Town-Dr-75287/home/31846610,NTREIS,14629080,N,Y,32.9879173,-96.8186247
MLS Listing,Single Family Residential,5622 Ledgestone Dr,Dallas,TX,75214,590000,3,2,Andover Meadows,1911,9322,1965,53,309,,Active,September-13-2021 08:00 AM,September-13-2021 08:00 PM,http://www.redfin.com/TX/Dallas/5622-Ledgestone-Dr-75214/home/30868617,NTREIS,14630414,N,Y,32.8533522,-96.7546014
MLS Listing,Single Family Residential,2911 Rambling Dr,Dallas,TX,75228,385000,3,2,Central Park East,1894,7492,1983,62,203,,Active,,,http://www.redfin.com/TX/Dallas/2911-Rambling-Dr-75228/home/31149679,NTREIS,14618953,N,Y,32.8100988,-96.6930109
MLS Listing,Single Family Residential,5203 Cedar Springs Rd,Dallas,TX,75235,699850,3,3,Oak Lawn Heights,2690,8930,1926,67,260,,Active,,,http://www.redfin.com/TX/Dallas/5203-Cedar-Springs-Rd-75235/home/30814067,NTREIS,14617972,N,Y,32.8212911,-96.825732
MLS Listing,Condo/Co-op,2600 W 7th St #1815,Fort Worth,TX,76107,360000,2,2,One Montgomery Plaza Residence Condo,1263,,1928,73,285,632,Active,,,http://www.redfin.com/TX/Fort-Worth/2600-W-7th-St-76107/unit-1815/home/31292758,NTREIS,14610316,N,Y,32.7520617,-97.3539768
MLS Listing,Single Family Residential,804 Chamberlain St,Irving,TX,75060,324900,3,2,Trinity View Summit,1135,25047,1983,77,286,,Active,,,http://www.redfin.com/TX/Irving/804-Chamberlain-St-75060/home/31759094,NTREIS,14609304,N,Y,32.8028085,-96.9377919
MLS Listing,Single Family Residential,10405 Somerton Dr,Dallas,TX,75229,2985000,6,6.5,Northway Hills,7460,15812,2015,94,400,,Active,,,http://www.redfin.com/TX/Dallas/10405-Somerton-Dr-75229/home/30910668,NTREIS,14598600,N,Y,32.8879692,-96.8452973
MLS Listing,Vacant Land,422 Delaware St,Dallas,TX,75208,175000,0,,Homestead Park,,7536,,94,,,Active,,,http://www.redfin.com/TX/Dallas/422-Delaware-St-75208/home/30832022,NTREIS,14594665,N,Y,32.737266,-96.829426
MLS Listing,Single Family Residential,8860 Liptonshire Dr,Dallas,TX,75238,425000,3,2,Lake Highlands Estates 10,1691,8059,1955,94,251,,Active,,,http://www.redfin.com/TX/Dallas/8860-Liptonshire-Dr-75238/home/31005792,NTREIS,14593703,N,Y,32.8694534,-96.703102
MLS Listing,Condo/Co-op,5200 Keller Springs Rd #736,Dallas,TX,75248,575000,2,2,Bonaventure Condo,1685,331012,1981,101,341,909,Active,,,http://www.redfin.com/TX/Dallas/5200-Keller-Springs-Rd-75248/unit-736/home/31128794,NTREIS,14590250,N,Y,32.9677598,-96.8184364
MLS Listing,Multi-Family (2-4 Unit),4529 Rusk Ave,Dallas,TX,75204,624900,2,2.5,Laclede Add,1956,6490,2021,108,319,,Active,,,http://www.redfin.com/TX/Dallas/4529-Rusk-Ave-75204/home/175186235,NTREIS,14584306,N,Y,32.8081652,-96.7848356
MLS Listing,Townhouse,4621 Steel St,Dallas,TX,75219,499900,3,3.5,Hawthorne Street Twnhms,2102,2788,2014,118,238,100,Active,,,http://www.redfin.com/TX/Dallas/4621-Steel-St-75219/home/30781297,NTREIS,14569418,N,Y,32.813491,-96.8240311
Redfin Data,Multi-Family (2-4 Unit),6248 Wheaton Dr,Fort Worth,TX,76133,300000,4,4,Fort Worth,2476,,1967,1,121,,Pre On-Market,,,http://www.redfin.com/TX/Fort-Worth/6248-Wheaton-Dr-76133/home/32164523,Coming Soon,76576,N,Y,32.656749,-97.400161
Redfin Data,Single Family Residential,432 Dakota Dr,Murphy,TX,75094,539000,5,3.5,Murphy,3115,13504,2002,1,173,,Pre On-Market,,,http://www.redfin.com/TX/Murphy/432-Dakota-Dr-75094/home/31525705,Coming Soon,76574,N,Y,33.0284984,-96.6219584
Redfin Data,Single Family Residential,725 Malibu Dr,Garland,TX,75043,259000,3,1.5,Garland,1326,7196,1971,2,195,,Pre On-Market,,,http://www.redfin.com/TX/Garland/725-Malibu-Dr-75043/home/31484949,Coming Soon,76527,N,Y,32.8584658,-96.5987576
Redfin Data,Single Family Residential,1012 Cottonbelt Dr,Saginaw,TX,76131,335000,4,2.5,Saginaw,2715,7971,1997,3,123,,Pre On-Market,,,http://www.redfin.com/TX/Saginaw/1012-Cottonbelt-Dr-76131/home/32435587,Coming Soon,76523,N,Y,32.8773845,-97.3512549
Redfin Data,Townhouse,2778 Edmonds Dr,Dallas,TX,75219,625000,3,3.5,Dallas,1922,,2016,3,325,22,Pre On-Market,,,http://www.redfin.com/TX/Dallas/2778-Edmonds-Dr-75219/home/143837918,Coming Soon,76514,N,Y,32.8094344,-96.8154557
Redfin Data,Single Family Residential,5213 Pensacola Dr,Garland,TX,75043,287000,4,2,Garland,2021,7797,1972,3,142,,Pre On-Market,,,http://www.redfin.com/TX/Garland/5213-Pensacola-Dr-75043/home/31483170,Coming Soon,76507,N,Y,32.8530765,-96.5794856
Redfin Data,Single Family Residential,7403 Authon Dr,Dallas,TX,75248,625000,4,3,Dallas,2869,8015,1973,3,218,,Pre On-Market,,,http://www.redfin.com/TX/Dallas/7403-Authon-Dr-75248/home/31079975,Coming Soon,76492,N,Y,32.9715525,-96.7801431
Redfin Data,Single Family Residential,11500 Petunia Dr,Fort Worth,TX,76244,350000,4,2.5,Fort Worth,2300,5227,2003,4,152,21,Pre On-Market,,,http://www.redfin.com/TX/Fort-Worth/11500-Petunia-Dr-76244/home/30979286,Coming Soon,76459,N,Y,32.9393585,-97.2680886
Redfin Data,Single Family Residential,1420 Sequoia Dr,Plano,TX,75023,269000,3,2,Plano,1506,7841,1972,5,179,,Pre On-Market,,,http://www.redfin.com/TX/Plano/1420-Sequoia-Dr-75023/home/31905693,Coming Soon,76404,N,Y,33.0436893,-96.7218677
Redfin Data,Single Family Residential,5213 Cedar Brush Dr,Fort Worth,TX,76123,449900,5,3.5,Fort Worth,4627,7841,2007,11,97,,Pre On-Market,,,http://www.redfin.com/TX/Fort-Worth/5213-Cedar-Brush-Dr-76123/home/35536753,Coming Soon,76159,N,Y,32.6160505,-97.4051649
MLS Listing,Single Family Residential,6704 Greenacres Dr,North Richland Hills,TX,76182,200000,3,2,Foster Village Add,1647,10062,1978,1,121,,Active,,,http://www.redfin.com/TX/North-Richland-Hills/6704-Greenacres-Dr-76182/home/31590234,NTREIS,14669987,N,Y,32.8794744,-97.2373699
MLS Listing,Single Family Residential,78 Chelonia Dr,Mansfield,TX,76063,110000,3,2,Oak Hill Village,1216,844803,2017,1,90,485,Active,,,http://www.redfin.com/TX/Mansfield/78-Chelonia-Dr-76063/home/167720117,NTREIS,14670031,N,Y,32.582035,-97.156153
MLS Listing,Single Family Residential,4000 Fort Branch Dr,Arlington,TX,76016,400000,4,2.5,Huntwick Add,2524,7971,1980,1,158,,Active,,,http://www.redfin.com/TX/Arlington/4000-Fort-Branch-Dr-76016/home/31689050,NTREIS,14670026,N,Y,32.6929979,-97.1712184
MLS Listing,Single Family Residential,11501 Falcon Trace Dr,Fort Worth,TX,76244,637433,4,3.5,Pheasant Crossing,2478,8276,2022,1,257,35,Active,,,http://www.redfin.com/TX/Keller/11501-Falcon-Trace-Dr-76244/home/176369818,NTREIS,14669978,N,Y,32.940442,-97.2911174
MLS Listing,Single Family Residential,13828 New Bark Cir,Farmers Branch,TX,75244,449900,3,2.5,Wooded Creek Estates,2403,9583,1976,1,187,,Active,,,http://www.redfin.com/TX/Farmers-Branch/13828-New-Bark-Cir-75244/home/31348027,NTREIS,14669784,N,Y,32.9319174,-96.8534222
MLS Listing,Single Family Residential,1009 McDonald Dr,Crowley,TX,76036,394900,4,2.5,Lasater Ranch,2865,17424,2021,1,138,19,Active,,,http://www.redfin.com/TX/CROWLEY/1009-MCDONALD-DR-76036/home/169580274,NTREIS,14670016,N,Y,32.561111,-97.372475
MLS Listing,Single Family Residential,228 Briar Oak Dr,Murphy,TX,75094,395000,3,2,Timbers 6 Ph I,2061,9583,2000,1,192,46,Active,,,http://www.redfin.com/TX/Murphy/228-Briar-Oak-Dr-75094/home/32108716,NTREIS,14669370,N,Y,33.0024364,-96.6088547
MLS Listing,Single Family Residential,1025 McDonald Dr,Crowley,TX,76036,338900,4,2.5,Lasater Ranch,2252,17424,2021,1,150,19,Active,,,http://www.redfin.com/TX/CROWLEY/1025-MCDONALD-DR-76036/home/169580270,NTREIS,14670007,N,Y,32.561161,-97.373251
MLS Listing,Single Family Residential,1148 Beaverwood Dr,Crowley,TX,76036,303900,3,2,Lasater Ranch,1768,17424,2021,1,172,19,Active,,,http://www.redfin.com/TX/Crowley/1148-Beaverwood-Ln-76036/home/169580226,NTREIS,14670002,N,Y,32.562857,-97.374613
MLS Listing,Single Family Residential,5349 Kingsknowe Pkwy,Fort Worth,TX,76135,317900,3,2,MARINE CREEK ESTATES,1899,5619,1999,1,167,30,Active,,,http://www.redfin.com/TX/Fort-Worth/5349-Kingsknowe-Pkwy-76135/home/32463620,NTREIS,14669992,N,Y,32.8277239,-97.4050382
MLS Listing,Single Family Residential,1021 McDonald Dr,Crowley,TX,76036,301900,3,2,Lasater Ranch,1768,17424,2021,1,171,19,Active,,,http://www.redfin.com/TX/CROWLEY/1021-MCDONALD-DR-76036/home/169580271,NTREIS,14669997,N,Y,32.561149,-97.373057
MLS Listing,Townhouse,3536 Miles St,Dallas,TX,75209,450000,3,2.5,Bowser Miles,1724,2004,2003,1,261,60,Active,,,http://www.redfin.com/TX/Dallas/3536-Miles-St-75209/home/32251788,NTREIS,14669949,N,Y,32.8268653,-96.8214245
MLS Listing,Single Family Residential,1001 McDonald Dr,Crowley,TX,76036,294900,3,2,Lasater Ranch,1552,17424,2021,1,190,19,Active,,,http://www.redfin.com/TX/CROWLEY/1001-MCDONALD-DR-76036/home/169580276,NTREIS,14669982,N,Y,32.561081,-97.372092
MLS Listing,Condo/Co-op,4100 Travis St #3,Dallas,TX,75204,420000,2,3,4100 Travis Street Condos,2060,34369,1999,1,204,405,Active,,,http://www.redfin.com/TX/Dallas/4100-Travis-St-75204/unit-3/home/32199147,NTREIS,14669442,N,Y,32.8152491,-96.794453
MLS Listing,Single Family Residential,1017 McDonald Dr,Crowley,TX,76036,294900,3,2,Lasater Ranch,1552,17424,2021,1,190,19,Active,,,http://www.redfin.com/TX/CROWLEY/1017-MCDONALD-DR-76036/home/169580272,NTREIS,14669977,N,Y,32.561136,-97.372864
MLS Listing,Single Family Residential,120 Happy Ln,Red Oak,TX,75154,324900,4,2,Harmony Ph 3,2232,5227,2019,1,146,55,Active,,,http://www.redfin.com/TX/Red-Oak/120-Happy-Ln-75154/home/167528305,NTREIS,14669926,N,Y,32.5405301,-96.8349567
MLS Listing,Townhouse,2327 Spencer Ct,Dallas,TX,75208,475000,1,1.5,,1531,,2021,1,310,200,Active,September-19-2021 01:00 PM,September-19-2021 04:00 PM,http://www.redfin.com/TX/Dallas/2327-Spencer-CT-75208/home/175907380,NTREIS,14669960,N,Y,32.773467,-96.835043
MLS Listing,Single Family Residential,5001 Thompson Dr,The Colony,TX,75056,299000,2,2,Colony 12,1795,7710,1977,1,167,,Active,,,http://www.redfin.com/TX/The-Colony/5001-Thompson-Dr-75056/home/33086073,NTREIS,14668058,N,Y,33.0935858,-96.8868134
MLS Listing,Single Family Residential,246 Commonwealth Cir,Waxahachie,TX,75165,270000,3,2,WINDCHASE,1334,7144,2012,1,202,,Active,,,http://www.redfin.com/TX/Waxahachie/246-Commonwealth-Cir-75165/home/52418166,ACTRIS,6471058,N,Y,32.4659526,-96.818541
MLS Listing,Single Family Residential,8701 Paradise Dr,McKinney,TX,75070,804494,4,4,"Tour At Craig Ranch, The",2927,3920,2021,1,275,25,Active,,,http://www.redfin.com/TX/McKinney/8701-Paradise-Dr-75070/home/167682867,NTREIS,14669953,N,Y,33.1446846,-96.7299283
MLS Listing,Single Family Residential,369 Myrtle Beach Dr,Garland,TX,75040,550660,3,2.5,Country Club Estates,2346,5227,2021,1,235,30,Active,September-18-2021 01:00 PM,September-18-2021 05:00 PM,http://www.redfin.com/TX/Garland/369-Myrtle-Beach-Dr-75040/home/173071836,NTREIS,14669936,N,Y,32.9132379,-96.6128432
MLS Listing,Single Family Residential,8503 Baumgarten Dr,Dallas,TX,75228,287500,3,2,White Rock Village 01,2371,7754,1975,1,121,,Active,,,http://www.redfin.com/TX/Dallas/8503-Baumgarten-Dr-75228/home/31010530,NTREIS,14665258,N,Y,32.8027258,-96.6959148
MLS Listing,Townhouse,2630 Welborn St,Dallas,TX,75219,1595000,4,4.5,Pecan Plaza,3993,2875,2005,1,399,,Active,,,http://www.redfin.com/TX/Dallas/2630-Welborn-St-75219/home/32212161,NTREIS,14621979,N,Y,32.805163,-96.8114094
MLS Listing,Condo/Co-op,5917 E University Blvd #216,Dallas,TX,75206,253000,2,2,Bella Gardens Condos,1118,145055,1964,1,226,249,Active,,,http://www.redfin.com/TX/Dallas/5917-E-University-Blvd-75206/unit-216/home/30729540,NTREIS,14665761,N,Y,32.8462118,-96.7648364
MLS Listing,Single Family Residential,2740 Salado Trl,Fort Worth,TX,76118,272000,3,2,River Trails Add,1455,5663,1987,1,187,,Active,,,http://www.redfin.com/TX/Fort-Worth/2740-Salado-Trl-76118/home/32368869,NTREIS,14668938,N,Y,32.7978278,-97.1915917
MLS Listing,Single Family Residential,417 Anice Ln,Euless,TX,76039,285000,3,2,Cinnamon Ridge,1271,8581,1984,1,224,,Active,,,http://www.redfin.com/TX/Euless/417-Anice-Ln-76039/home/32333134,NTREIS,14669779,N,Y,32.8742536,-97.0767393
MLS Listing,Townhouse,1211 Urban Lofts Dr,Dallas,TX,75215,405100,2,2,Akard Street Twnhms,1800,2091,2007,1,225,100,Active,,,http://www.redfin.com/TX/Dallas/1211-Urban-Lofts-Dr-75215/home/30773781,NTREIS,14665857,N,Y,32.7685262,-96.7917647
MLS Listing,Single Family Residential,6848 Casa Loma Ave,Dallas,TX,75214,615000,2,2,Gastonwood 02,1708,8712,1938,1,360,,Active,,,http://www.redfin.com/TX/Dallas/6848-Casa-Loma-Ave-75214/home/30818843,NTREIS,14665891,N,Y,32.8130954,-96.7414334
MLS Listing,Single Family Residential,6428 N Park Dr,Watauga,TX,76148,260000,3,2,Foster Village Add,1513,7362,1983,1,172,,Active,,,http://www.redfin.com/TX/Watauga/6428-N-Park-Dr-76148/home/32290717,NTREIS,14668195,N,Y,32.8858812,-97.247018
MLS Listing,Townhouse,3836 San Jacinto St,Dallas,TX,75204,418600,2,2,San Jacinto Street Twnhms,1984,1742,2003,1,211,203,Active,,,http://www.redfin.com/TX/Dallas/3836-San-Jacinto-St-75204/home/30730175,NTREIS,14665878,N,Y,32.7978313,-96.7842197
MLS Listing,Single Family Residential,6846 Trammel Dr,Dallas,TX,75214,350000,3,2,Fisher Road Heights 02,1426,7318,1958,1,245,,Active,,,http://www.redfin.com/TX/Dallas/6846-Trammel-Dr-75214/home/32256288,NTREIS,14669333,N,Y,32.8488596,-96.7419351
MLS Listing,Single Family Residential,318 McKenzie St,Waxahachie,TX,75165,210000,2,1,Town .256 AC,1434,11543,1945,1,146,,Active,,,http://www.redfin.com/TX/Waxahachie/318-Mc-Kenzie-St-75165/home/33662671,NTREIS,14669513,N,Y,32.3916479,-96.8377171
MLS Listing,Single Family Residential,8512 Sterling Dr,Denton,TX,76207,958000,2,2.5,Robson Ranch 25,2509,12458,2015,1,382,285,Active,,,http://www.redfin.com/TX/Denton/8512-Sterling-Dr-76207/home/173934942,NTREIS,14669322,N,Y,33.1443454,-97.2390124
MLS Listing,Single Family Residential,2226 McMullin Dr,Euless,TX,76040,620459,4,3.5,Lonestar Estates,3307,6011,2021,1,188,42,Active,,,http://www.redfin.com/TX/Euless/2226-McMullin-Dr-76040/home/176369347,NTREIS,14669877,N,Y,32.824486,-97.120929
MLS Listing,Multi-Family (2-4 Unit),13351 Kit Ln,Dallas,TX,75240,450000,6,4,Northcrest Park,3102,11238,1968,1,145,,Active,,,http://www.redfin.com/TX/Dallas/13351-Kit-Ln-75240/home/31047521,NTREIS,14669881,N,Y,32.9301062,-96.7661119
MLS Listing,Townhouse,1931 Landon Ln,Dallas,TX,75204,475000,2,2.5,Chambers Corner Add,1632,1002,2021,1,291,225,Active,,,http://www.redfin.com/TX/Dallas/1931-Landon-Ln-75204/home/110137363,NTREIS,14668303,N,Y,32.8082592,-96.7793191
MLS Listing,Single Family Residential,2870 Meadow Port Dr,Farmers Branch,TX,75234,300000,4,3,Farmington Park Estates,2302,14636,1962,1,130,,Active,,,http://www.redfin.com/TX/Farmers-Branch/2870-Meadow-Port-Dr-75234/home/31336409,NTREIS,14655604,N,Y,32.913169,-96.8848229
MLS Listing,Single Family Residential,3011 Sutton Ct,Weatherford,TX,76085,404000,4,2.5,Midway,2625,87120,2021,1,154,,Active,,,http://www.redfin.com/TX/Weatherford/3011-Sutton-CT-76085/home/176369212,NTREIS,14669752,N,Y,32.54454,-97.39151
MLS Listing,Single Family Residential,1439 Hortense Ave,Dallas,TX,75216,139900,3,2,Bellevue,1360,8799,1960,1,103,,Active,,,http://www.redfin.com/TX/Dallas/1439-Hortense-Ave-75216/home/30843451,NTREIS,14669720,N,Y,32.6894551,-96.8028861
MLS Listing,Single Family Residential,9007 Leaside Dr,Dallas,TX,75238,413000,3,2,Lake Highlands Estates 10,1269,8233,1955,1,325,,Active,,,http://www.redfin.com/TX/Dallas/9007-Leaside-Dr-75238/home/31005787,NTREIS,14669785,N,Y,32.8698996,-96.7021409
MLS Listing,Single Family Residential,601 Meadowbrook St,Lake Dallas,TX,75065,355000,3,2,Oak Lakes,1612,9322,2017,1,220,,Active,,,http://www.redfin.com/TX/Lake-Dallas/601-Meadowbrook-75065/home/59392761,NTREIS,14669838,N,Y,33.1341567,-97.0310971
MLS Listing,Single Family Residential,127 N Aiken St,Waxahachie,TX,75165,299900,3,2.5,Town,1782,7449,2021,1,168,,Active,,,http://www.redfin.com/TX/Waxahachie/127-N-Aiken-St-75165/home/33591983,NTREIS,14669840,N,Y,32.384485,-96.839892
MLS Listing,Single Family Residential,2520 Spring Park Dr,Balch Springs,TX,75180,230000,4,2,Spring Lake,1756,6926,2003,1,131,15,Active,,,http://www.redfin.com/TX/Balch-Springs/2520-Spring-Park-Dr-75180/home/30729233,NTREIS,14660635,N,Y,32.7356151,-96.6372354
MLS Listing,Single Family Residential,868 June Dr,White Settlement,TX,76108,135000,3,1,Mc Donnell Add,1446,7013,1958,1,93,,Active,,,http://www.redfin.com/TX/White-Settlement/868-June-Dr-76108/home/31810296,NTREIS,14669794,N,Y,32.7503256,-97.457002
MLS Listing,Single Family Residential,921 Trinity Dr,Lancaster,TX,75146,332000,4,2,Westwood 05 Ph B,2836,7449,2005,1,117,,Active,,,http://www.redfin.com/TX/Lancaster/921-Trinity-Dr-75146/home/30755948,NTREIS,14669815,N,Y,32.593725,-96.772027
MLS Listing,Single Family Residential,175 Arrow Wood Rd,Waxahachie,TX,75052,329400,3,2,Buffalo Ridge,1647,9235,2021,1,200,33,Active,,,http://www.redfin.com/TX/Waxahachie/175-Arrow-Wood-Rd-75165/home/176369091,NTREIS,14669807,N,Y,32.4055091,-96.8059572
MLS Listing,Townhouse,216 Wimberly St,Fort Worth,TX,76107,449000,3,2.5,Linwood Add,2080,3049,2016,1,216,,Active,,,http://www.redfin.com/TX/Fort-Worth/216-Wimberly-St-76107/home/144045524,NTREIS,14669801,N,Y,32.7574686,-97.3590654
MLS Listing,Single Family Residential,4021 Rothington Rd,Fort Worth,TX,76116,342500,3,2,Ridglea Hills Add,1847,14201,1953,1,185,,Active,,,http://www.redfin.com/TX/Fort-Worth/4021-Rothington-Rd-76116/home/31961193,NTREIS,14669674,N,Y,32.7110325,-97.4363397
MLS Listing,Single Family Residential,1809 Wade Ct,Little Elm,TX,7506,439310,4,2.5,Northlake Estates,2339,15028,2021,1,188,52,Active,,,http://www.redfin.com/TX/Little-Elm/1809-Wade-CT-Unknown/home/176368993,NTREIS,14652766,N,Y,33.16243,-96.937508
MLS Listing,Single Family Residential,920 Granview Dr,Lewisville,TX,75067,466000,4,3,Valley Vista 3,2619,9148,1997,1,178,,Active,,,http://www.redfin.com/TX/Lewisville/920-Granview-Dr-75067/home/32777895,NTREIS,14669768,N,Y,33.0153095,-97.0132421
MLS Listing,Condo/Co-op,2139 Mail Ave #101,Dallas,TX,75235,374900,2,2.5,Hoods J T,1512,7492,2021,1,248,150,Active,,,http://www.redfin.com/TX/Dallas/2139-Mail-Ave-75235/unit-101/home/176368946,NTREIS,14668651,N,Y,32.830214,-96.856373
MLS Listing,Single Family Residential,625 Bluebonnet Ln,Mesquite,TX,75149,225000,3,2,Highland Hills,1200,7187,1965,1,188,,Active,,,http://www.redfin.com/TX/Mesquite/625-Bluebonnet-Ln-75149/home/31849080,NTREIS,14669759,N,Y,32.759218,-96.5813834
MLS Listing,Condo/Co-op,4432 Harlanwood Dr #127,Fort Worth,TX,76109,260000,2,2,Royale Orleans North Condo,1317,2134,1969,1,197,648,Active,,,http://www.redfin.com/TX/Fort-Worth/4432-Harlanwood-Dr-76109/unit-127/home/32339202,NTREIS,14669681,N,Y,32.7052381,-97.3876567
MLS Listing,Single Family Residential,2620 Burning Tree Ln,Irving,TX,75062,200000,3,2,Country Club Estates,1262,8059,1963,1,158,,Active,,,http://www.redfin.com/TX/Irving/2620-Burning-Tree-Ln-75062/home/31647190,NTREIS,14669755,N,Y,32.8529305,-96.9843191
MLS Listing,Vacant Land,9349 Sagrada Park,Fort Worth,TX,76126,170000,0,,Montserrat,,27878,,1,,333,Active,,,http://www.redfin.com/TX/Fort-Worth/9349-Sagrada-Park-76126/home/31080426,NTREIS,14669753,N,Y,32.709801,-97.478353
MLS Listing,Single Family Residential,5008 Andover Dr,Plano,TX,75023,450000,3,2,Hunters Glen One,2049,10019,1980,1,220,,Active,,,http://www.redfin.com/TX/Plano/5008-Andover-Dr-75023/home/31867520,NTREIS,14669734,N,Y,33.0540504,-96.7249401
MLS Listing,Single Family Residential,3704 Stratford Ave,Highland Park,TX,75205,9500000,5,6.5,Highland Park 03,8900,14549,2021,1,1067,,Active,,,http://www.redfin.com/TX/Dallas/3704-Stratford-Ave-75205/home/32064017,NTREIS,14665663,N,Y,32.834233,-96.795057
MLS Listing,Single Family Residential,1121 Nighthawk Trl,Alvarado,TX,76009,383474,5,3,Eagle Glen,2685,5663,2021,1,143,24,Active,,,http://www.redfin.com/TX/Alvarado/1121-Nighthawk-Trl-76009/home/173387733,NTREIS,14669735,N,Y,32.4073746,-97.1980856
MLS Listing,Single Family Residential,3510 Reeves St,North Richland Hills,TX,76117,243000,3,2,North Hills Add,1362,8451,1956,1,178,,Active,,,http://www.redfin.com/TX/North-Richland-Hills/3510-Reeves-St-76117/home/31829632,NTREIS,14666278,N,Y,32.8136845,-97.2608527
MLS Listing,Single Family Residential,710 W Camp Wisdom Rd,Duncanville,TX,75116,215000,3,1,Irwin Keasler Dev Red Bird 04,1356,12023,1960,1,159,,Active,,,http://www.redfin.com/TX/Duncanville/710-W-Camp-Wisdom-Rd-75116/home/32074742,NTREIS,14669590,N,Y,32.6615417,-96.922947
MLS Listing,Single Family Residential,303 Bales St,Cleburne,TX,76033,188000,3,2,Original Cleburne,1405,10367,1963,1,134,,Active,,,http://www.redfin.com/TX/Cleburne/303-Bales-St-76033/home/33654447,NTREIS,14655567,N,Y,32.3598023,-97.3954942
MLS Listing,Single Family Residential,3932 Burleson Retta Rd,Burleson,TX,76028,259000,2,1,"MONFORT, WILLIAM H SURVEY ABSTRACT 1115 TRACT",996,14767,1970,1,260,,Active,,,http://www.redfin.com/TX/Burleson/3932-Burleson-Retta-Rd-76028/home/32252583,NTREIS,14669721,N,Y,32.554906,-97.255225
MLS Listing,Multi-Family (2-4 Unit),416 Grandview Ave,Dallas,TX,75223,529900,3,2.5,Mount Auburn,2165,7231,2021,1,245,,Active,,,http://www.redfin.com/TX/Dallas/416-Grandview-Ave-75223/home/176368770,NTREIS,14668620,N,Y,32.8011882,-96.7507956
MLS Listing,Single Family Residential,1012 W Bowie St,Fort Worth,TX,76110,450000,4,3,South Hemphill Heights Add,3200,5009,2018,1,141,,Active,,,http://www.redfin.com/TX/Fort-Worth/1012-W-Bowie-St-76110/home/32063313,NTREIS,14669707,N,Y,32.707956,-97.336299
MLS Listing,Single Family Residential,4015 Mount Royal St,Dallas,TX,75211,119900,2,1,Westridge Park,838,7144,1944,1,143,,Active,,,http://www.redfin.com/TX/Dallas/4015-Mt-Royal-St-75211/home/30852730,NTREIS,14669677,N,Y,32.7450748,-96.8857737
MLS Listing,Condo/Co-op,4830 Cedar Springs Rd #6,Dallas,TX,75219,400000,2,2.5,Carreras Twnhms Condos,1953,84681,2005,1,205,300,Active,,,http://www.redfin.com/TX/Dallas/4830-Cedar-Springs-Rd-75219/unit-6/home/30764719,NTREIS,14669574,N,Y,32.8201363,-96.821566
MLS Listing,Single Family Residential,2841 Coldwater Ct,Midlothian,TX,76065,825000,3,2.5,Coldwater Creek-Rev,3802,27573,1999,1,217,4,Active,,,http://www.redfin.com/TX/Midlothian/2841-Coldwater-Ct-76065/home/33611424,NTREIS,14669356,N,Y,32.4504188,-96.9477113
MLS Listing,Single Family Residential,226 2nd St,Wilmer,TX,75172,126900,2,1,J W Johnsons,884,11369,1922,1,144,,Active,,,http://www.redfin.com/TX/Wilmer/226-Second-St-75172/home/32049495,NTREIS,14669628,N,Y,32.5910853,-96.6854279
MLS Listing,Vacant Land,2117 Avenue B,Grand Prairie,TX,75051,85000,0,,Waldrum City,,8276,2009,1,,,Active,,,http://www.redfin.com/TX/Grand-Prairie/2117-Avenue-B-75051/home/176368523,NTREIS,14669625,N,Y,32.7145939,-96.9834836
MLS Listing,Single Family Residential,4329 Aldridge Ln,Fort Worth,TX,76036,372900,5,2.5,Wellington Point,3548,8059,2017,1,105,31,Active,,,http://www.redfin.com/TX/Crowley/4329-Aldridge-Ln-76036/home/31316113,NTREIS,14666895,N,Y,32.6049722,-97.3874716
MLS Listing,Single Family Residential,13883 Sorano Dr,Frisco,TX,75035,749999,5,4,Sorano,3910,10629,2013,1,192,35,Active,,,http://www.redfin.com/TX/Frisco/13883-Sorano-Dr-75035/home/31840941,NTREIS,14667227,N,Y,33.160447,-96.7574498
MLS Listing,Single Family Residential,205 Walnut Way,Euless,TX,76039,396900,3,2,Royal Oaks Estates,2136,11979,1968,1,186,,Active,,,http://www.redfin.com/TX/Euless/205-Walnut-Way-76039/home/32006027,NTREIS,14669609,N,Y,32.8580497,-97.0850375
MLS Listing,Single Family Residential,801 Stetter Dr,Arlington,TX,76001,265000,3,2,Stonebrook Estates Add,1531,15899,1986,1,173,,Active,,,http://www.redfin.com/TX/Arlington/801-Stetter-Dr-76001/home/32377938,NTREIS,14669412,N,Y,32.6399597,-97.1202703
MLS Listing,Single Family Residential,536 Northwood Dr,Oak Point,TX,75068,429900,4,3,Woodridge Estates Ph Three,2699,10846,2017,1,159,33,Active,,,http://www.redfin.com/TX/Little-Elm/536-Northwood-Dr-75068/home/109692233,NTREIS,14667473,N,Y,33.1775722,-96.9700931
MLS Listing,Single Family Residential,5209 Cheyenne Dr,Parker,TX,75002,1130000,5,4.5,Parker Ranch Estates Ph 3,5068,56628,2019,1,223,83,Active,,,http://www.redfin.com/TX/Parker/5209-Cheyenne-Dr-75002/home/167685103,NTREIS,14669595,N,Y,33.074837,-96.637281
MLS Listing,Single Family Residential,1928 Elm Shadows Dr,Dallas,TX,75232,270000,3,2.5,Guthrie Terrace,2313,8494,1968,1,117,,Active,,,http://www.redfin.com/TX/Dallas/1928-Elm-Shadows-Dr-75232/home/30956823,NTREIS,14666929,N,Y,32.661313,-96.8518725
MLS Listing,Single Family Residential,1307 Cedar Oaks Blvd,Dallas,TX,75216,369500,3,2,Cedar Oaks,2008,7623,1950,1,184,,Active,,,http://www.redfin.com/TX/Dallas/1307-Cedar-Oaks-Blvd-75216/home/30835503,NTREIS,14656125,N,Y,32.7328773,-96.819169
MLS Listing,Condo/Co-op,2104 Friendly Dr #2922,Arlington,TX,76011,160000,2,1,Cloisters Condo The,963,2439,1982,1,166,234,Active,,,http://www.redfin.com/TX/Arlington/2104-Friendly-Dr-76011/unit-2922/home/32328030,NTREIS,14668149,N,Y,32.766821,-97.092643
MLS Listing,Single Family Residential,900 Sycamore Creek Rd,Allen,TX,75002,424900,3,2,Fountain Park Sixth Sec,2223,10019,1984,1,191,,Active,,,http://www.redfin.com/TX/Allen/900-Sycamore-Creek-Rd-75002/home/32010555,NTREIS,14667746,N,Y,33.1017768,-96.6493219
MLS Listing,Single Family Residential,3812 Winding Way,Frisco,TX,75035,445000,3,2,Hillcrest Estates Sec II Ph Vii,1979,9148,1999,1,225,73,Active,,,http://www.redfin.com/TX/Frisco/3812-Winding-Way-75035/home/32119172,NTREIS,14669190,N,Y,33.1104473,-96.7823187
MLS Listing,Single Family Residential,2828 Calico Rock Dr,Fort Worth,TX,76131,365000,4,2.5,Crossing At Fossil Creek The,2629,6621,2001,1,139,33,Active,,,http://www.redfin.com/TX/Fort-Worth/2828-Calico-Rock-Dr-76131/home/32480096,NTREIS,14667423,N,Y,32.8503433,-97.3166813
MLS Listing,Single Family Residential,5831 Deerfield Ln,Midlothian,TX,76065,464900,3,2,Th Splendor Ph II,2158,43908,2006,1,215,,Active,,,http://www.redfin.com/TX/Midlothian/5831-Deerfield-Ln-76065/home/33547625,NTREIS,14669454,N,Y,32.5140958,-96.9192154
MLS Listing,Vacant Land,2227 King Fisher Dr,Westlake,TX,76262,1950000,0,,Vaquero Residential Add,,23261,,1,,438,Active,,,http://www.redfin.com/TX/Westlake/2227-King-Fisher-Dr-76262/home/31001998,NTREIS,14667319,N,Y,32.977745,-97.194076
MLS Listing,Single Family Residential,2475 Dockside Dr,Grand Prairie,TX,75054,450000,4,3,Landing At Grand Peninsula,2936,7318,2003,1,153,117,Active,,,http://www.redfin.com/TX/Grand-Prairie/2475-Dockside-Dr-75054/home/30946319,NTREIS,14669547,N,Y,32.6094503,-97.0404135
MLS Listing,Single Family Residential,1915 Heather Glen Dr,Dallas,TX,75232,298000,3,2,Glen Hills,2886,11500,1966,1,103,,Active,,,http://www.redfin.com/TX/Dallas/1915-Heather-Glen-Dr-75232/home/30955568,NTREIS,14669021,N,Y,32.676433,-96.8517049
MLS Listing,Single Family Residential,804 Travis St,Garland,TX,75040,225000,4,2,North Garland Heights Add,1212,8102,1954,1,186,,Active,,,http://www.redfin.com/TX/Garland/804-Travis-St-75040/home/31439287,NTREIS,14669541,N,Y,32.9238931,-96.6399907
MLS Listing,Single Family Residential,1409 Blackburn Ln,Plano,TX,75025,450000,4,2.5,West Creek Estates 1-B,2634,8276,1989,1,171,,Active,,,http://www.redfin.com/TX/Plano/1409-Blackburn-Ln-75025/home/32065141,NTREIS,14667379,N,Y,33.075045,-96.7190671
MLS Listing,Single Family Residential,8 Adams Ct,Mansfield,TX,76063,375000,5,3,Heritage Estates Add,2766,11151,1999,1,136,,Active,,,http://www.redfin.com/TX/Mansfield/8-Adams-Ct-76063/home/32453691,NTREIS,14659199,N,Y,32.6020256,-97.0997085
MLS Listing,Single Family Residential,1557 Speers Dr,Mansfield,TX,76063,350000,3,2,BRIDGEMAN,1568,64904,1945,1,223,,Active,,,http://www.redfin.com/TX/Mansfield/1557-Speers-Dr-76063/home/32287634,NTREIS,14656844,N,Y,32.5574202,-97.168567
MLS Listing,Single Family Residential,900 E Jefferson Ave,Fort Worth,TX,76104,199999,2,1,Southland Sub,1654,6011,1925,1,121,,Active,,,http://www.redfin.com/TX/Fort-Worth/900-E-Jefferson-Ave-76104/home/32072318,NTREIS,14667267,N,Y,32.7241781,-97.3181364
MLS Listing,Single Family Residential,636 Steerman Ct,Saginaw,TX,76179,381900,4,2.5,Willow Vista Estates,2273,8581,2021,1,168,33,Active,,,http://www.redfin.com/TX/Saginaw/636-Steerman-Ct-76179/home/167716099,NTREIS,14669516,N,Y,32.864523,-97.378576
MLS Listing,Single Family Residential,3220 Redstone Dr,Arlington,TX,76001,510000,4,2.5,Redstone Manor,2743,36678,1995,1,186,,Active,,,http://www.redfin.com/TX/Arlington/3220-Redstone-Dr-76001/home/32419113,NTREIS,14669375,N,Y,32.641281,-97.1599611
MLS Listing,Single Family Residential,4718 Mayflower Dr,Midlothian,TX,76065,458451,4,2.5,Prairie Ridge,2097,10019,2021,1,219,54,Active,,,http://www.redfin.com/TX/Midlothian/4718-Mayflower-DR-76065/home/176368054,NTREIS,14669465,N,Y,32.502645,-97.075365
MLS Listing,Single Family Residential,5800 Houghton Ave,Fort Worth,TX,76107,179900,2,1,Chamberlain Arlington Heights 2nd,1024,6273,1946,1,176,,Active,,,http://www.redfin.com/TX/Fort-Worth/5800-Houghton-Ave-76107/home/31476569,NTREIS,14669239,N,Y,32.7266762,-97.4099796
MLS Listing,Vacant Land,2217 Becky Dr,Arlington,TX,76001,250000,0,,"Warnell, WM W Survey ABST",,43560,,1,,,Active,,,http://www.redfin.com/TX/Arlington/2217-Becky-Dr-76001/home/32372351,NTREIS,14669466,N,Y,32.625262,-97.145458
MLS Listing,Single Family Residential,5605 Buttercup Ln,McKinney,TX,75070,400000,4,2,Eldorado Heights Sec 2 Ph VI,2019,8276,1999,1,198,29,Active,,,http://www.redfin.com/TX/McKinney/5605-Buttercup-Ln-75070/home/32112952,NTREIS,14646462,N,Y,33.1635939,-96.6878093
MLS Listing,Single Family Residential,208 Se Gardens Blvd,Burleson,TX,76028,212000,3,2,Gardens,1486,8102,1965,1,143,,Active,,,http://www.redfin.com/TX/Burleson/208-SE-Gardens-Blvd-76028/home/33634620,NTREIS,14668819,N,Y,32.5310551,-97.3337444
MLS Listing,Single Family Residential,2815 Stanford Ave,University Park,TX,75225,2300000,4,5,Caruth Hills,4861,8407,2005,1,473,,Active,,,http://www.redfin.com/TX/Dallas/2815-Stanford-Ave-75225/home/32056706,NTREIS,14665327,N,Y,32.8527467,-96.7759594
MLS Listing,Townhouse,1918 Diyaa Ct,Farmers Branch,TX,75324,434496,3,2.5,Kensington Place,1863,,2021,1,233,242,Active,,,http://www.redfin.com/TX/Farmers-Branch/1918-Diyaa-Ct-75234/home/176346837,NTREIS,14669463,N,Y,32.917487,-96.914869
MLS Listing,Condo/Co-op,2801 Turtle Creek Blvd Unit 10W,Dallas,TX,75219,4649000,2,2.5,The Mansion Residence,3669,1307,1992,1,1267,4107,Active,,,http://www.redfin.com/TX/Dallas/2801-Turtle-Creek-Blvd-75219/unit-10W/home/31176155,NTREIS,14668955,N,Y,32.8036478,-96.8069811
MLS Listing,Single Family Residential,3913 Hamilton Ave,Fort Worth,TX,76107,1070000,3,3,Monticello Add,3252,10977,1945,1,329,,Active,,,http://www.redfin.com/TX/Fort-Worth/3913-Hamilton-Ave-76107/home/31797391,NTREIS,14668596,N,Y,32.7568852,-97.3759883
MLS Listing,Single Family Residential,5132 Britton Ridge Ln,Fort Worth,TX,76179,258000,3,2,Terrace Landing,1413,5227,2011,1,183,29,Active,,,http://www.redfin.com/TX/Fort-Worth/5132-Britton-Ridge-Ln-76179/home/31305892,NTREIS,14668694,N,Y,32.8380264,-97.3810221
MLS Listing,Multi-Family (2-4 Unit),727 Glendale,Dallas,TX,75214,450000,3,2,Munger Place 2nd Sec,1856,21780,1915,1,242,,Active,,,http://www.redfin.com/TX/Dallas/727-Glendale-St-75214/home/30805755,NTREIS,14668351,N,Y,32.8068691,-96.7600847
MLS Listing,Single Family Residential,9968 Mixon Dr,Dallas,TX,75220,520000,3,2,Marsh Lane Rev,1817,10280,1951,1,286,,Active,,,http://www.redfin.com/TX/Dallas/9968-Mixon-Dr-75220/home/30912179,NTREIS,14666536,N,Y,32.8794992,-96.8521505
MLS Listing,Single Family Residential,1921 Martel Ave,Fort Worth,TX,76103,170000,3,1,Scenery Hill Add,1148,13634,1952,1,148,,Active,,,http://www.redfin.com/TX/Fort-Worth/1921-Martel-Ave-76103/home/32035360,NTREIS,14666116,N,Y,32.7481404,-97.2629467
MLS Listing,Single Family Residential,615 Mission Hills Dr,Arlington,TX,76018,295000,3,2.5,Northbrooke Arlington,1855,6403,1985,1,159,,Active,,,http://www.redfin.com/TX/Arlington/615-Mission-Hills-Dr-76018/home/32367812,NTREIS,14667993,N,Y,32.6455222,-97.1034924
MLS Listing,Single Family Residential,6506 Lakehurst Ave,Dallas,TX,75230,2399500,5,5.5,Hillcrest Park Add,6356,16901,1999,1,378,,Active,,,http://www.redfin.com/TX/Dallas/6506-Lakehurst-Ave-75230/home/30875079,NTREIS,14656452,N,Y,32.8839189,-96.792948
MLS Listing,Single Family Residential,6936 Barbican Dr,Plano,TX,75023,329000,3,2,Trails The,1425,4356,1997,1,231,21,Active,,,http://www.redfin.com/TX/Plano/6936-Barbican-Dr-75023/home/32216587,NTREIS,14669134,N,Y,33.0714293,-96.7536021
MLS Listing,Single Family Residential,408 Flagstone Dr,Burleson,TX,76028,340000,3,2,Sierra Estates,2093,11195,1987,1,162,,Active,,,http://www.redfin.com/TX/Burleson/408-Flagstone-Dr-76028/home/33641148,NTREIS,14668858,N,Y,32.5499402,-97.3452629
MLS Listing,Single Family Residential,413 Northbrook Ave,Oak Point,TX,75068,358000,3,2,Woodridge Estates Ph One,1794,10193,2010,1,200,30,Active,,,http://www.redfin.com/TX/Oak-Point/413-Northbrook-Ave-75068/home/40289206,NTREIS,14668964,N,Y,33.1769579,-96.9759888
MLS Listing,Single Family Residential,3560 High Vista Dr,Dallas,TX,75234,329900,3,2,Highland Meadows,1936,7492,1962,1,170,,Active,,,http://www.redfin.com/TX/Dallas/3560-High-Vista-Dr-75234/home/30935745,NTREIS,14669054,N,Y,32.9120641,-96.858675
MLS Listing,Single Family Residential,8711 Ronnie St,White Settlement,TX,76108,154900,2,1,Norman Add,876,8538,1958,1,177,,Active,,,http://www.redfin.com/TX/White-Settlement/8711-Ronnie-St-76108/home/31815113,NTREIS,14669337,N,Y,32.7637408,-97.4682051
MLS Listing,Single Family Residential,7212 Spring Ranch Ct,Godley,TX,76044,599900,3,3,Spring Ranch,2699,45302,2016,1,222,29,Active,,,http://www.redfin.com/TX/Godley/7212-Spring-Ranch-Ct-76044/home/108588040,NTREIS,14669437,N,Y,32.5156896,-97.5285743
MLS Listing,Single Family Residential,1408 Shetland Dr,Allen,TX,75013,429000,4,3,Glendover Park Ph V,2878,7405,2000,1,149,28,Active,,,http://www.redfin.com/TX/Allen/1408-Shetland-Dr-75013/home/32134470,NTREIS,14669305,N,Y,33.1176297,-96.7045437
MLS Listing,Single Family Residential,1121 Intervale Dr,Garland,TX,75043,220000,3,2,Montclair 02,1120,7710,1967,1,196,,Active,,,http://www.redfin.com/TX/Garland/1121-Intervale-Dr-75043/home/31435945,NTREIS,14666215,N,Y,32.8541714,-96.6434558
MLS Listing,Single Family Residential,3913 Fox Run Dr,Fort Worth,TX,76123,285000,4,2.5,Fox Run Add,2640,5489,1999,1,108,29,Active,,,http://www.redfin.com/TX/Fort-Worth/3913-Fox-Run-Dr-76123/home/32445113,NTREIS,14669424,N,Y,32.6123541,-97.3791966
MLS Listing,Single Family Residential,10036 Fm 2449,Ponder,TX,76259,725000,4,3.5,N Rudder,3727,87120,1999,1,195,,Active,,,http://www.redfin.com/TX/Ponder/10036-FM2449-76259/home/33062027,NTREIS,14668262,N,Y,33.1801282,-97.3014989
MLS Listing,Single Family Residential,7811 Tillman St,Dallas,TX,75217,179900,3,2,Bruton Terrace Bl F 6228,1627,7754,1954,1,111,,Active,,,http://www.redfin.com/TX/Dallas/7811-Tillman-St-75217/home/30915620,NTREIS,14669419,N,Y,32.7446935,-96.6882479
MLS Listing,Vacant Land,4932 Reiger Ave,Dallas,TX,75214,377500,0,,Mckells Homestead,,17990,,1,,,Active,,,http://www.redfin.com/TX/Dallas/4932-Reiger-Ave-75214/home/30798014,NTREIS,14669089,N,Y,32.796817,-96.763411
MLS Listing,Single Family Residential,605 Nantucket Cir,Richardson,TX,75080,329900,4,2,PARK NORTH 2 REV,1660,8799,1978,1,199,,Active,,,http://www.redfin.com/TX/Richardson/605-Nantucket-Cir-75080/home/31946428,NTREIS,14669377,N,Y,32.9661959,-96.7399072
MLS Listing,Single Family Residential,930 Powell Rd,Mesquite,TX,75149,135000,3,2,Valley View Heights,1353,8059,1957,1,100,,Active,,,http://www.redfin.com/TX/Mesquite/930-Powell-Rd-75149/home/31907144,NTREIS,14667482,N,Y,32.7572996,-96.6265495
MLS Listing,Single Family Residential,3105 Conejos Dr,Fort Worth,TX,76116,219900,3,2,Western Hills Add,1568,8407,1966,1,140,,Active,,,http://www.redfin.com/TX/Fort-Worth/3105-Conejos-Dr-76116/home/32177912,NTREIS,14669388,N,Y,32.7297706,-97.4635132
MLS Listing,Single Family Residential,3036 Sappington Pl,Fort Worth,TX,76116,225000,2,2,Golf Hill Add,992,11108,1947,1,227,,Active,,,http://www.redfin.com/TX/Fort-Worth/3036-Sappington-Pl-76116/home/31612446,NTREIS,14665752,N,Y,32.7302828,-97.4335089
MLS Listing,Single Family Residential,3740 Burleson Retta Rd,Burleson,TX,76028,305000,4,2,Mcconathy Addition,2188,43124,2014,1,139,,Active,,,http://www.redfin.com/TX/Burleson/3740-Burleson-Retta-Rd-76028/home/106218733,NTREIS,14669393,N,Y,32.5584994,-97.2585629
MLS Listing,Condo/Co-op,6488 Bordeaux Ave Unit G,Dallas,TX,75209,252000,2,1,Bordeaux Village Condos,1029,649915,1951,1,245,284,Active,,,http://www.redfin.com/TX/Dallas/6488-Bordeaux-Ave-75209/unit-G/home/176367699,NTREIS,14669387,N,Y,32.8358942,-96.8262166
MLS Listing,Single Family Residential,4248 Meadowknoll Dr,Fort Worth,TX,76123,274900,4,2.5,Fox Run Add,2732,5489,2001,1,101,,Active,,,http://www.redfin.com/TX/Fort-Worth/4248-Meadowknoll-Dr-76123/home/32477799,NTREIS,14666483,N,Y,32.6128161,-97.3855295
MLS Listing,Vacant Land,12810 Sultana St Lot 16,Dallas,TX,75253,60000,0,,Garden Hts #1 Add,,7492,,1,,,Active,,,http://www.redfin.com/TX/Dallas/12810-Sultana-St-75253/unit-16/home/176367979,NTREIS,14669357,N,Y,32.6778986,-96.613111
MLS Listing,Vacant Land,12810 Sultana St Lot 15,Dallas,TX,75253,60000,0,,Garden Hts #1 Add,,7492,,1,,,Active,,,http://www.redfin.com/TX/Dallas/12810-Sultana-St-75253/unit-15/home/176367980,NTREIS,14669350,N,Y,32.6778986,-96.613111
MLS Listing,Single Family Residential,5645 Rockport Ln,Haltom City,TX,76137,369900,5,3,Fossil Spgs Add,3043,7187,1997,1,122,,Active,,,http://www.redfin.com/TX/Haltom-City/5645-Rockport-Ln-76137/home/32423914,NTREIS,14664783,N,Y,32.8564482,-97.2762657
MLS Listing,Single Family Residential,405 Oakhurst Dr,Murphy,TX,75094,399900,4,2,Glen Ridge Estates - Ph IV,2226,11326,2000,1,180,32,Active,,,http://www.redfin.com/TX/Murphy/405-Oakhurst-Dr-75094/home/32278223,NTREIS,14669283,N,Y,33.0232189,-96.622021
MLS Listing,Condo/Co-op,6050 Melody Ln #346,Dallas,TX,75231,98500,2,2,Tealwood On The Creek Condo,885,351616,1979,1,111,347,Active,,,http://www.redfin.com/TX/Dallas/6050-Melody-Ln-75231/unit-346/home/30869438,NTREIS,14669340,N,Y,32.8674893,-96.7603746
MLS Listing,Single Family Residential,8716 Granite Path,Fort Worth,TX,76244,259000,3,2,Stone Manor Add,1364,5009,2001,1,190,,Active,,,http://www.redfin.com/TX/Fort-Worth/8716-Granite-Path-76244/home/32468953,NTREIS,14667899,N,Y,32.9004042,-97.2887863
MLS Listing,Vacant Land,999 Pebble Valley Ln,Dallas,TX,75217,80000,0,,Pleasant Vly Add #4,,62901,,1,,,Active,,,http://www.redfin.com/TX/Dallas/999-Pebble-Valley-Ln-75217/home/31052358,NTREIS,14669328,N,Y,32.714903,-96.653959
MLS Listing,Single Family Residential,3144 Middleview Rd,Fort Worth,TX,76108,224900,3,2,Tiffany Gardens Add,1496,6534,2005,1,150,15,Active,,,http://www.redfin.com/TX/Fort-Worth/3144-Middleview-Rd-76108/home/31105163,NTREIS,14669319,N,Y,32.7280103,-97.5003153
MLS Listing,Single Family Residential,214 W 14th St,Irving,TX,75060,215000,3,1,Caster Estates,1196,7144,1953,1,180,,Active,,,http://www.redfin.com/TX/Irving/214-W-14th-St-75060/home/31640484,NTREIS,14667757,N,Y,32.7996135,-96.948739
MLS Listing,Single Family Residential,2233 52nd St,Dallas,TX,75216,225000,4,1.5,Horizon Estates,1516,8364,1959,1,148,,Active,,,http://www.redfin.com/TX/Dallas/2233-52nd-St-75216/home/30852307,NTREIS,14668953,N,Y,32.6910549,-96.7879464
MLS Listing,Single Family Residential,213 S Roberts Cut Off Rd,Fort Worth,TX,76114,232000,2,1,Trinity Place Ft Worth,1040,10411,1952,1,223,,Active,,,http://www.redfin.com/TX/Fort-Worth/213-S-Roberts-Cut-Off-Rd-76114/home/32136640,NTREIS,14669315,N,Y,32.7580213,-97.3998437
MLS Listing,Single Family Residential,6313 Provinces St,Fort Worth,TX,76179,265000,4,2,Marine Creek Hills Add,1880,5445,2006,1,141,,Active,,,http://www.redfin.com/TX/Fort-Worth/6313-Provinces-St-76179/home/35559045,NTREIS,14669307,N,Y,32.8529621,-97.4032011
MLS Listing,Single Family Residential,6553 Lafayette Way,Dallas,TX,75230,750000,3,2,Huffhines Hill,2108,21780,1955,1,356,,Active,,,http://www.redfin.com/TX/Dallas/6553-Lafayette-Way-75230/home/31017054,NTREIS,14669301,N,Y,32.9215815,-96.7931351
MLS Listing,Single Family Residential,5140 Mona Ln,Dallas,TX,75236,140000,2,1,Cedar Forest,1208,12981,1965,1,116,,Active,,,http://www.redfin.com/TX/Dallas/5140-Mona-Ln-75236/home/31107095,NTREIS,14669293,N,Y,32.6831832,-96.9215633
MLS Listing,Single Family Residential,1515 Marbellas Ct,Corinth,TX,76210,374900,4,2.5,Braewood At Oakmont,2395,30405,2001,1,157,135,Active,,,http://www.redfin.com/TX/Corinth/1515-Marbellas-Ct-76210/home/33123557,NTREIS,14651749,N,Y,33.1568502,-97.091721
MLS Listing,Single Family Residential,3601 Reese Dr,Venus,TX,76084,155500,4,2,Fiedlerdale Farms,1808,106286,1984,1,86,,Active,,,http://www.redfin.com/TX/Venus/3601-Reese-Dr-76084/home/33691973,NTREIS,14668457,N,Y,32.48097,-97.1174231
MLS Listing,Single Family Residential,1529 Davis Blvd,Garland,TX,75042,158000,3,1,Garland Park,1081,7797,1952,1,146,,Active,,,http://www.redfin.com/TX/Garland/1529-Davis-Blvd-75042/home/31393968,NTREIS,14669274,N,Y,32.9056508,-96.651681
MLS Listing,Single Family Residential,5629 Paradise Dr,Midlothian,TX,76065,369900,4,2,The Rosebud Sec 4,2056,10106,2014,1,180,32,Active,,,http://www.redfin.com/TX/Midlothian/5629-Paradise-Dr-76065/home/56760748,NTREIS,14669276,N,Y,32.4213374,-97.0066504
MLS Listing,Vacant Land,2410 Fossil Creek Dr,Midlothian,TX,76065,185000,0,,Mcalpin Manor Ph 2,,88035,,1,,29,Active,,,http://www.redfin.com/TX/Midlothian/2410-Fossil-Creek-Dr-76065/home/105524744,NTREIS,14669273,N,Y,32.4088736,-96.966517
MLS Listing,Vacant Land,3213 Wendelkin St,Dallas,TX,75215,50000,0,,MCKELL SPROAT & COOK,,1960,,1,,,Active,,,http://www.redfin.com/TX/Dallas/3213-Wendelkin-St-75215/home/30795063,NTREIS,14669138,N,Y,32.760549,-96.773791
MLS Listing,Townhouse,4951 Rolling Vis,Mesquite,TX,75150,185000,2,2.5,Palos Verdes,1093,,1985,1,169,250,Active,,,http://www.redfin.com/TX/Mesquite/4951-Rolling-Vis-75150/home/31876400,NTREIS,14669255,N,Y,32.832814,-96.600984
MLS Listing,Single Family Residential,7421 Elman Ln,Azle,TX,76020,389900,3,2,Estate Addition,1947,52533,2009,1,200,,Active,,,http://www.redfin.com/TX/Azle/7421-Elman-Ln-76020/home/32383412,NTREIS,14668959,N,Y,32.9481098,-97.5288916
MLS Listing,Single Family Residential,834 Big Thicket Trl,Mesquite,TX,75149,324900,4,2,Parkview 03,2525,8059,1996,1,129,,Active,,,http://www.redfin.com/TX/Mesquite/834-Big-Thicket-Trl-75149/home/31880082,NTREIS,14669160,N,Y,32.7774063,-96.5844699
MLS Listing,Single Family Residential,5066 Mayfair St,Fort Worth,TX,76116,195000,3,2,Arlington Heights West,965,6752,1951,1,202,,Active,,,http://www.redfin.com/TX/Fort-Worth/5066-Mayfair-St-76116/home/31376279,NTREIS,14667025,N,Y,32.6993473,-97.4521015
MLS Listing,Single Family Residential,1713 West Point Dr,Carrollton,TX,75007,499900,4,2.5,Moore Farm Phase 4B,2591,7797,2005,1,193,50,Active,,,http://www.redfin.com/TX/Carrollton/1713-W-Point-Dr-75007/home/32603756,NTREIS,14669095,N,Y,33.0229373,-96.8924501
MLS Listing,Vacant Land,4030 Gilmore St,Fort Worth,TX,76111,65000,0,,Gilmore G W Add,,8364,,1,,,Active,,,http://www.redfin.com/TX/Fort-Worth/4030-Gilmore-St-76111/home/31600081,NTREIS,14669244,N,Y,32.765936,-97.286592
MLS Listing,Vacant Land,4017 E 1st St,Fort Worth,TX,76111,65000,0,,Gilmore G W Add,,8843,,1,,,Active,,,http://www.redfin.com/TX/Fort-Worth/4017-E-1st-St-76111/home/31600087,NTREIS,14669242,N,Y,32.765548,-97.286596
MLS Listing,Single Family Residential,2209 Shady Park Dr,Arlington,TX,76013,250000,3,2,Shady Park Add,1820,7710,1976,1,137,,Active,,,http://www.redfin.com/TX/Arlington/2209-Shady-Park-Dr-76013/home/32042930,NTREIS,14659183,N,Y,32.7075094,-97.1646111
MLS Listing,Single Family Residential,9121 Rushing River Dr,Fort Worth,TX,76118,314900,3,2,Lakes Of River Trails South,1662,5489,2002,1,189,25,Active,,,http://www.redfin.com/TX/Fort-Worth/9121-Rushing-River-Dr-76118/home/32492321,NTREIS,14666279,N,Y,32.7932177,-97.179468
MLS Listing,Single Family Residential,2245 San Medina Ave,Dallas,TX,75228,299000,3,2,Casa View Oaks 01,1341,7710,1953,1,223,,Active,,,http://www.redfin.com/TX/Dallas/2245-San-Medina-Ave-75228/home/30969296,NTREIS,14668845,N,Y,32.8337148,-96.6767389
MLS Listing,Single Family Residential,730 Paradise Cv,Shady Shores,TX,76208,674900,4,3.5,Cielo Ranch,3569,21344,2002,1,189,667,Active,September-18-2021 11:00 AM,September-18-2021 01:00 PM,http://www.redfin.com/TX/Shady-Shores/730-Paradise-Cv-76208/home/33062112,NTREIS,14669224,N,Y,33.1556701,-97.0174509
MLS Listing,Single Family Residential,4206 Jessica Ln,Carrollton,TX,75010,459000,4,3,Oak Hills Sec 4,2436,6882,1991,1,188,,Active,,,http://www.redfin.com/TX/Carrollton/4206-Jessica-Ln-75010/home/32780729,NTREIS,14666137,N,Y,33.0249764,-96.9109771
MLS Listing,Single Family Residential,3221 Anchor Dr,Plano,TX,75023,365000,4,2,Spring Creek Pkwy Estates West 7,1527,7841,1983,1,239,,Active,,,http://www.redfin.com/TX/Plano/3221-Anchor-Dr-75023/home/32171479,NTREIS,14665504,N,Y,33.0621578,-96.7547104
MLS Listing,Single Family Residential,2800 Berry Hl,McKinney,TX,75069,429900,3,2,Coventry Point Ph 2,1838,13504,1997,1,234,,Active,,,http://www.redfin.com/TX/McKinney/2800-Berry-Hl-75069/home/32258033,NTREIS,14652961,N,Y,33.1738126,-96.6324349
MLS Listing,Single Family Residential,1142 W Clarendon Dr,Dallas,TX,75208,325000,2,1,Melrose,1059,7013,1922,1,307,,Active,,,http://www.redfin.com/TX/Dallas/1142-W-Clarendon-Dr-75208/home/30831697,NTREIS,14658104,N,Y,32.7352868,-96.841821
MLS Listing,Single Family Residential,420 S Evans St,Boyd,TX,76023,140000,4,1.5,Boyd Outlots,1478,30318,1950,1,95,,Active,,,http://www.redfin.com/TX/Boyd/420-S-Evans-St-76023/home/33989363,NTREIS,14669219,N,Y,33.0743787,-97.5666625
MLS Listing,Single Family Residential,405 Pecan Dr,Dallas,TX,75203,250000,4,2,MEADOWMERE,1488,3920,2021,1,168,,Active,September-13-2021 04:00 PM,September-13-2021 06:00 PM,http://www.redfin.com/TX/Dallas/405-Pecan-Dr-75203/home/31042966,NTREIS,14669220,N,Y,32.751546,-96.801804
MLS Listing,Single Family Residential,132 Hampton Ct,Rhome,TX,76078,275000,3,2,Crown Point Ph2,1997,9148,2003,1,138,,Active,,,http://www.redfin.com/TX/Rhome/132-Hampton-Ct-76078/home/33968490,NTREIS,14669193,N,Y,33.0528387,-97.4661339
MLS Listing,Single Family Residential,13319 Rolling Hills Ln,Dallas,TX,75240,719000,4,4,Hillcrest Homes,2996,13765,1963,1,240,,Active,,,http://www.redfin.com/TX/Dallas/13319-Rolling-Hills-Ln-75240/home/31025098,NTREIS,14668039,N,Y,32.9319069,-96.7793063
MLS Listing,Single Family Residential,925 Waynelee Dr,Lancaster,TX,75146,240000,3,2,Westwood Rev,1573,9235,1978,1,153,,Active,,,http://www.redfin.com/TX/Lancaster/925-Waynelee-Dr-75146/home/31802045,NTREIS,14649598,N,Y,32.5962788,-96.7731774
MLS Listing,Single Family Residential,4011 Carpenter Ave,Dallas,TX,75210,120000,2,1,Parish,1364,6229,1941,1,88,,Active,,,http://www.redfin.com/TX/Dallas/4011-Carpenter-Ave-75210/home/30815463,NTREIS,14668144,N,Y,32.7686156,-96.7444022
MLS Listing,Single Family Residential,384 Valley View Dr,Lewisville,TX,75067,420000,4,2.5,Timber Hill Add Ph II,2885,9496,1999,1,146,,Active,,,http://www.redfin.com/TX/Lewisville/384-Valley-View-Dr-75067/home/33050445,NTREIS,14669034,N,Y,33.0131616,-96.9977086
MLS Listing,Single Family Residential,3104 Canterbury Ln,Flower Mound,TX,75028,349900,4,2,Westchester-Flower Mound 2,2085,7492,1984,2,168,,Active,,,http://www.redfin.com/TX/Flower-Mound/3104-Canterbury-Ln-75028/home/33077277,NTREIS,14669185,N,Y,33.0380065,-97.0778082
MLS Listing,Single Family Residential,8340 Park Brook Dr,North Richland Hills,TX,76182,485000,5,3,Forest Glenn East Add,2515,11500,2003,2,193,10,Active,,,http://www.redfin.com/TX/North-Richland-Hills/8340-Park-Brook-Dr-76182/home/32501473,NTREIS,14666759,N,Y,32.9025641,-97.2020543
MLS Listing,Townhouse,2545 Champagne Dr,Irving,TX,75038,299900,2,2.5,VILLAS OF COTTONWOOD CREEK BLK C LT 208,1412,5227,2002,2,212,203,Active,,,http://www.redfin.com/TX/Irving/2545-Champagne-Dr-75038/home/32229992,NTREIS,14668904,N,Y,32.8651583,-96.9820109
MLS Listing,Single Family Residential,1738 Glen Key St,Grand Prairie,TX,75051,259900,4,2,Inglewood Park 01,1583,8233,1956,2,164,,Active,,,http://www.redfin.com/TX/Grand-Prairie/1738-Glen-Key-St-75051/home/31556412,NTREIS,14669101,N,Y,32.7208273,-97.0141029
MLS Listing,Condo/Co-op,5136 Amesbury Dr #107,Dallas,TX,75206,225000,2,2,Arrangement Condo,1008,159212,1970,2,223,325,Active,,,http://www.redfin.com/TX/Dallas/5136-Amesbury-Dr-75206/unit-107/home/30868263,NTREIS,14666611,N,Y,32.8498022,-96.764193
MLS Listing,Townhouse,4307 Hebron St,Irving,TX,75061,345000,3,2.5,Esters Estates,1947,2483,2018,2,177,225,Active,,,http://www.redfin.com/TX/Irving/4307-Hebron-St-75061/home/147236500,NTREIS,14669191,N,Y,32.8337785,-97.0111258
MLS Listing,Single Family Residential,1400 Boone St,Cleburne,TX,76031,750000,3,2,ABST 124 TR 9 C CHANEY,1518,1960200,2016,2,494,,Active,,,http://www.redfin.com/TX/Cleburne/1400-Boone-St-76031/home/35606711,NTREIS,14669024,N,Y,32.373403,-97.3711904
MLS Listing,Multi-Family (2-4 Unit),3733 Binkley Ave,University Park,TX,75205,995000,4,2,STINSONS REV OF MT VERNON ANNEX,2627,5837,1929,2,379,,Active,,,http://www.redfin.com/TX/Dallas/3733-Binkley-Ave-75205/home/32097085,NTREIS,14668626,N,Y,32.840894,-96.795227
MLS Listing,Single Family Residential,8724 Gaines Dr,Fort Worth,TX,76244,269000,3,2,Arcadia Park Add,1728,5750,2003,2,156,,Active,,,http://www.redfin.com/TX/Fort-Worth/8724-Gaines-Dr-76244/home/30980930,NTREIS,14665947,N,Y,32.8998688,-97.3032067
MLS Listing,Single Family Residential,413 High Summit Trl,Fort Worth,TX,76131,305000,5,2,Watersbend South,2124,6882,2019,2,144,27,Active,,,http://www.redfin.com/TX/Fort-Worth/413-High-Summit-Trl-76131/home/169576492,NTREIS,14669096,N,Y,32.902744,-97.368023
MLS Listing,Single Family Residential,8617 Stonewall Ct,Fort Worth,TX,76123,278900,4,2,Meadow Creek South Add,2128,10498,2004,2,131,20,Active,,,http://www.redfin.com/TX/Fort-Worth/8617-Stonewall-Ct-76123/home/30994100,NTREIS,14669151,N,Y,32.6158787,-97.3618056
MLS Listing,Single Family Residential,4504 N Colony Blvd,The Colony,TX,75056,285000,3,2,Colony 26,1364,6621,1983,2,209,,Active,,,http://www.redfin.com/TX/The-Colony/4504-N-Colony-Blvd-75056/home/33037664,NTREIS,14669116,N,Y,33.0954586,-96.8964527
MLS Listing,Single Family Residential,914 Hampshire St,Grand Prairie,TX,75050,310000,3,2,Dorchester Place,1926,10629,1968,2,161,,Active,September-18-2021 11:00 AM,September-18-2021 02:00 PM,http://www.redfin.com/TX/Grand-Prairie/914-Hampshire-Dr-75050/home/31536231,NTREIS,14669169,N,Y,32.7676851,-97.0178189
MLS Listing,Single Family Residential,1340 N Creek Dr,Saginaw,TX,76179,225000,3,2,Saginaw North Add,1553,7318,1983,2,145,,Active,,,http://www.redfin.com/TX/Fort-Worth/1340-N-Creek-Dr-76179/home/32023979,NTREIS,14669163,N,Y,32.8805251,-97.3856561
MLS Listing,Single Family Residential,2795 Sun Rise Ln,Grand Prairie,TX,75052,389900,4,2.5,Somerton Village,2893,8364,2008,2,135,30,Active,,,http://www.redfin.com/TX/Grand-Prairie/2795-Sun-Rise-Ln-75052/home/31089265,NTREIS,14669157,N,Y,32.6418656,-97.0554109
MLS Listing,Single Family Residential,2065 Adrian Ct,Waxahachie,TX,75165,456356,5,3.5,THE ARBORS TWO,2886,9496,2021,2,158,35,Active,,,http://www.redfin.com/TX/Waxahachie/2065-Adrian-CT-75165/home/176361451,NTREIS,14668755,N,Y,32.43811,-96.831705
MLS Listing,Single Family Residential,617 Oakwood Ave,Hurst,TX,76053,269999,3,2,Hurst Park West Sub,1571,11021,1957,2,172,,Active,,,http://www.redfin.com/TX/Hurst/617-Oakwood-Ave-76053/home/31694796,NTREIS,14668628,N,Y,32.8175293,-97.1806466
MLS Listing,Single Family Residential,4438 Twin Post Rd,Dallas,TX,75244,1250000,5,3,Schreiber Manor 02 Inst,4161,16640,1966,2,300,,Active,,,http://www.redfin.com/TX/Dallas/4438-Twin-Post-Rd-75244/home/31098117,NTREIS,14667068,N,Y,32.9194417,-96.8327969
MLS Listing,Single Family Residential,12112 Worchester Dr,Crowley,TX,76036,255900,3,2,Coventry Add,1868,6621,2001,2,137,40,Active,,,http://www.redfin.com/TX/Crowley/12112-Worchester-Dr-76036/home/32483762,NTREIS,14669149,N,Y,32.5818307,-97.3318881
MLS Listing,Single Family Residential,10032 Bodega Bay Rd,Fort Worth,TX,76177,385000,4,3,Tehama Bluffs,2521,5489,2017,2,153,68,Active,,,http://www.redfin.com/TX/Fort-Worth/10032-Bodega-Bay-Rd-76177/home/144047836,NTREIS,14669117,N,Y,32.921398,-97.321313
MLS Listing,Single Family Residential,2920 Bomar Ave,Fort Worth,TX,76103,215000,4,2,Sycamore Heights,1646,7013,1930,2,131,,Active,,,http://www.redfin.com/TX/Fort-Worth/2920-Bomar-Ave-76103/home/32115273,NTREIS,14667088,N,Y,32.7455082,-97.2833478
MLS Listing,Single Family Residential,4536 Louisville Dr,Plano,TX,75093,399000,3,2,544 Place Sec Two,1951,9148,1979,2,205,,Active,,,http://www.redfin.com/TX/Plano/4536-Louisville-Dr-75093/home/32160454,NTREIS,14663400,N,Y,33.0211724,-96.785666
MLS Listing,Single Family Residential,2005 Surrey Oaks Dr,Arlington,TX,76006,399500,3,2.5,Wood Creek Add,2592,9583,1980,2,154,,Active,,,http://www.redfin.com/TX/Arlington/2005-Surrey-Oaks-Dr-76006/home/32210516,NTREIS,14668836,N,Y,32.7680195,-97.0754336
MLS Listing,Condo/Co-op,3225 Turtle Creek Blvd #1003,Dallas,TX,75219,374000,2,2,Renaissance on Turtle Creek Condo,1120,154028,1998,2,334,672,Active,,,http://www.redfin.com/TX/Dallas/3225-Turtle-Creek-Blvd-75219/unit-1003/home/30731845,NTREIS,14669128,N,Y,32.806751,-96.8047924
MLS Listing,Single Family Residential,223 Happy Ln,Red Oak,TX,75154,380000,4,3.5,Harmony Ph 1,3350,5489,2015,2,113,55,Active,,,http://www.redfin.com/TX/Red-Oak/223-Happy-Ln-75154/home/110012119,NTREIS,14665430,N,Y,32.5425156,-96.8354558
MLS Listing,Single Family Residential,4917 Miami Dr,Garland,TX,75043,225000,4,2,Southlake Estates,1353,8451,1972,2,166,,Active,,,http://www.redfin.com/TX/Garland/4917-Miami-Dr-75043/home/31484723,NTREIS,14668189,N,Y,32.8558342,-96.5987576
MLS Listing,Townhouse,2419 Magalia Ln,Lewisville,TX,75056,365000,3,3.5,Windhaven Crossing Add,2025,1655,2018,2,180,150,Active,,,http://www.redfin.com/TX/Lewisville/2419-Magalia-Ln-75067/home/109687516,NTREIS,14662578,N,Y,33.0525024,-96.9147479
MLS Listing,Single Family Residential,703 W 3rd St,Justin,TX,76247,234900,3,2,Fitch 2,1794,17990,1937,2,131,,Active,,,http://www.redfin.com/TX/Justin/703-W-3rd-St-76247/home/33000311,NTREIS,14666528,N,Y,33.0870471,-97.3035019
MLS Listing,Single Family Residential,3111 Kimberlee Ln,Highland Village,TX,75077,989000,5,4.5,Highland Shores Ph 17c I,4748,14070,2002,2,208,71,Active,,,http://www.redfin.com/TX/Highland-Village/3111-Kimberlee-Ln-75077/home/33062997,NTREIS,14648702,N,Y,33.1013428,-97.0766104
MLS Listing,Townhouse,8612 Hunters Trace Ln,Plano,TX,75024,280000,2,1.5,Pasquinellis Hidden Creek Estates Ph 2,1448,2657,2002,2,193,255,Active,,,http://www.redfin.com/TX/Plano/8612-Hunters-Trace-Ln-75024/home/32311315,NTREIS,14652941,N,Y,33.094962,-96.785068
MLS Listing,Single Family Residential,424 Langley Ave,Everman,TX,76140,154000,3,1.5,Everman Place Add,1120,8320,1965,2,138,,Active,,,http://www.redfin.com/TX/Everman/424-Langley-Ave-76140/home/31561637,NTREIS,14669022,N,Y,32.6250794,-97.2861724
MLS Listing,Townhouse,7289 Sacaton Trl,Frisco,TX,75033,522143,3,2.5,Frisco Springs,2241,3136,2021,2,233,238,Active,,,http://www.redfin.com/TX/Frisco/7289-Sacaton-Trl-75035/home/169608479,NTREIS,14668601,N,Y,33.180764,-96.820388
MLS Listing,Townhouse,7219 Sacaton Trl,Frisco,TX,75033,505290,3,2.5,Frisco Springs,2185,3528,2021,2,231,238,Active,,,http://www.redfin.com/TX/Frisco/7219-Sacaton-Trl-75033/home/169608473,NTREIS,14668629,N,Y,33.1808537,-96.8209021
MLS Listing,Single Family Residential,10624 Canoe Dr,Irving,TX,75063,801491,4,4,South Haven,3444,6186,2021,2,233,44,Active,,,http://www.redfin.com/TX/Irving/10624-Canoe-DR-75063/home/176360936,NTREIS,14668140,N,Y,32.950192,-96.964977
MLS Listing,Single Family Residential,517 Red Oak St,Allen,TX,75002,285000,3,1,Oak Hill,1241,6534,1981,2,230,,Active,,,http://www.redfin.com/TX/Allen/517-Red-Oak-Dr-75002/home/31983996,NTREIS,14667108,N,Y,33.0871875,-96.6672993
MLS Listing,Single Family Residential,216 Rousseau St,Waxahachie,TX,75165,315000,3,2,Strickland Rev,1673,5793,2021,2,188,,Active,,,http://www.redfin.com/TX/Waxahachie/216-Rousseau-St-75165/home/167971222,NTREIS,14669098,N,Y,32.389959,-96.836344
MLS Listing,Single Family Residential,2016 Stone Canyon Ct,Arlington,TX,76012,587340,4,4,Highland Ridge Add,3828,21824,2002,2,153,50,Active,,,http://www.redfin.com/TX/Arlington/2016-Stone-Canyon-Ct-76012/home/30951563,NTREIS,14666621,N,Y,32.7701127,-97.1421215
MLS Listing,Single Family Residential,328 E Pecan St,Hurst,TX,76053,417900,4,3,Noble Estates Add,2455,11108,2019,2,170,,Active,,,http://www.redfin.com/TX/Hurst/328-E-Pecan-St-76053/home/144045715,NTREIS,14652044,N,Y,32.8188214,-97.1630751
MLS Listing,Single Family Residential,3617 Vancouver Dr,Fort Worth,TX,76119,255000,3,2,Eastwood 4th & 5th Filing Add,1548,9104,2021,2,165,,Active,,,http://www.redfin.com/TX/Fort-Worth/3617-Vancouver-St-76119/home/31532229,NTREIS,14661805,N,Y,32.7106014,-97.2470533
MLS Listing,Single Family Residential,1232 Round Pen Run,Fort Worth,TX,76052,279900,4,2,Sendera Ranch,1664,6882,2006,2,168,46,Active,,,http://www.redfin.com/TX/Haslet/1232-Round-Pen-Run-76052/home/31128572,NTREIS,14627545,N,Y,32.9872068,-97.3865005
MLS Listing,Single Family Residential,1129 LINDEN Dr,Burleson,TX,76028,290000,4,2,Mistletoe Hill Ph III,1979,8276,2007,2,147,25,Active,,,http://www.redfin.com/TX/Burleson/1129-Linden-Dr-76028/home/31131555,NTREIS,14665814,N,Y,32.5707285,-97.3293991
MLS Listing,Single Family Residential,2903 Lee Ave,Fort Worth,TX,76106,210000,4,2,Ellis M G Add,1408,7013,1925,2,149,,Active,,,http://www.redfin.com/TX/Fort-Worth/2903-Lee-Ave-76106/home/31547988,NTREIS,14652692,N,Y,32.7978247,-97.356108
MLS Listing,Single Family Residential,3236 Langley Dr,Plano,TX,75025,750000,4,4.5,Whiffletree Vii,4307,10019,1996,2,174,10,Active,,,http://www.redfin.com/TX/Plano/3236-Langley-Dr-75025/home/32043962,NTREIS,14651102,N,Y,33.0780885,-96.7550659
MLS Listing,Single Family Residential,9024 Brook Hill Ln,Fort Worth,TX,76244,384900,4,3.5,Arcadia Park Add,3428,5489,2010,2,112,33,Active,,,http://www.redfin.com/TX/Fort-Worth/9024-Brook-Hill-Ln-76244/home/31063455,NTREIS,14669066,N,Y,32.9044972,-97.2922014
MLS Listing,Single Family Residential,4138 Ball St,Dallas,TX,75216,279000,4,2,Garoutte H G,1668,6186,2021,2,167,,Active,,,http://www.redfin.com/TX/Dallas/4138-Ball-St-75216/home/30855027,NTREIS,14667687,N,Y,32.700552,-96.791523
MLS Listing,Single Family Residential,6172 Blue Spruce Cir,Haltom City,TX,76137,210000,4,3,Alta Vista Acres,1864,7536,1976,2,113,,Active,,,http://www.redfin.com/TX/Haltom-City/6172-Blue-Spruce-Cir-76137/home/31367190,NTREIS,14669072,N,Y,32.8594184,-97.2783102
MLS Listing,Single Family Residential,2204 King Fisher Dr,Westlake,TX,76262,2750000,4,,Vaquero Residential Add,,61332,2021,2,,438,Active,,,http://www.redfin.com/TX/Westlake/2204-King-Fisher-Dr-76262/home/31042171,NTREIS,14669071,N,Y,32.978999,-97.193723
MLS Listing,Single Family Residential,1221 Wyndham Hill Ln,Southlake,TX,76092,2295000,5,5.5,Monticello Add,4933,27704,2010,2,465,104,Active,,,http://www.redfin.com/TX/Southlake/1221-Wyndham-Hill-Ln-76092/home/32423350,NTREIS,14667199,N,Y,32.9237709,-97.1638325
MLS Listing,Single Family Residential,2509 Rosebud Cir,Carrollton,TX,75006,310000,3,2,Summertree 03,1545,10411,1981,2,201,,Active,,,http://www.redfin.com/TX/Carrollton/2509-Rosebud-Cir-75006/home/31225605,NTREIS,14657994,N,Y,32.9727744,-96.86999
MLS Listing,Condo/Co-op,7640 W Greenway Blvd Unit 3F,Dallas,TX,75209,181500,1,1.5,Inwood Crossroads Condo,816,100406,1982,2,222,316,Active,,,http://www.redfin.com/TX/Dallas/7640-W-Greenway-Blvd-75209/unit-3F/home/31173806,NTREIS,14668547,N,Y,32.8489325,-96.8187294
MLS Listing,Single Family Residential,6455 Palm Island St,Dallas,TX,75241,179000,4,2,Highland Green,1231,7841,1972,2,145,,Active,,,http://www.redfin.com/TX/Dallas/6455-Palm-Island-St-75241/home/30946853,NTREIS,14668235,N,Y,32.6676407,-96.7521384
MLS Listing,Single Family Residential,300 Cottonwood,Palmer,TX,75152,319900,3,2,W M Farrell,1676,217800,1989,2,191,,Active,,,http://www.redfin.com/TX/Palmer/300-Cottonwood-75152/home/167491094,NTREIS,14662135,N,Y,32.3899629,-96.7092034
MLS Listing,Townhouse,9901 Schramm St,Irving,TX,75063,451000,3,2.5,Legends Crossing TownHomes,1726,1873,2021,2,261,200,Active,,,http://www.redfin.com/TX/Irving/9901-Schramm-St-75063/home/175047532,NTREIS,14669062,N,Y,32.9405354,-96.9476731
MLS Listing,Single Family Residential,810 Birchwood,Garland,TX,75043,250000,4,2,Montclair 3,1488,7405,1969,2,168,,Active,,,http://www.redfin.com/TX/Garland/810-Birchwood-Dr-75043/home/31435682,NTREIS,14669063,N,Y,32.8555695,-96.6369432
MLS Listing,Single Family Residential,12713 Homestretch Dr,Fort Worth,TX,76244,450000,4,3,Saratoga,2989,8494,2008,2,151,45,Active,,,http://www.redfin.com/TX/Fort-Worth/12713-Homestretch-Dr-76244/home/35539218,NTREIS,14669043,N,Y,32.958139,-97.2823782
MLS Listing,Single Family Residential,756 Deerwood Dr,Dallas,TX,75232,125000,3,1,Polk Terrace,916,7275,1956,2,136,,Active,,,http://www.redfin.com/TX/Dallas/756-Deerwood-Dr-75232/home/30937947,NTREIS,14669064,N,Y,32.6597146,-96.8340531
MLS Listing,Single Family Residential,1464 Keeler Dr,Irving,TX,75060,150000,3,1,Keeler Estates,885,10193,1949,2,169,,Active,,,http://www.redfin.com/TX/Irving/1464-Keeler-Dr-75060/home/31682487,NTREIS,14668996,N,Y,32.810528,-96.9622891
MLS Listing,Single Family Residential,3904 Mercury St,Haltom City,TX,76111,199900,3,2,Martha Sub,1100,9845,1949,2,182,,Active,,,http://www.redfin.com/TX/Haltom-City/3904-Mercury-St-76111/home/31754516,NTREIS,14669059,N,Y,32.7923139,-97.2898552
MLS Listing,Townhouse,9908 Schramm St,Irving,TX,75063,439000,3,2.5,Legends Crossing TownHomes,1757,1873,2021,2,250,225,Active,,,http://www.redfin.com/TX/Irving/9908-Schramm-St-75063/home/174663404,NTREIS,14669056,N,Y,32.9406577,-96.9472813
MLS Listing,Single Family Residential,3324 University Park Ln,Irving,TX,75062,665000,3,3,University Park 01,4036,5009,2005,2,165,225,Active,,,http://www.redfin.com/TX/Irving/3324-University-Park-Ln-75062/home/31762751,NTREIS,14668284,N,Y,32.8502046,-96.9338851
MLS Listing,Single Family Residential,2106 Pinwood Cir,Arlington,TX,76001,420000,4,2.5,Edgewood East,3008,7579,1990,2,140,,Active,,,http://www.redfin.com/TX/Arlington/2106-Pinwood-Cir-76001/home/32397987,NTREIS,14669049,N,Y,32.647871,-97.1404051
MLS Listing,Single Family Residential,4300 Perrine Pl,Grand Prairie,TX,75052,270000,3,2,Sheffield Village Ph 45&6 Adn,1663,7449,1992,2,162,,Active,,,http://www.redfin.com/TX/Grand-Prairie/4300-Perrine-Pl-75052/home/32386735,NTREIS,14669048,N,Y,32.6666886,-97.0544866
MLS Listing,Vacant Land,127 Chamblin Dr,Cedar Hill,TX,75104,50000,0,,Waterford Oaks West,,7013,,2,,,Active,,,http://www.redfin.com/TX/Cedar-Hill/127-Chamblin-Dr-75104/home/30733008,NTREIS,14669046,N,Y,32.5962107,-96.9216535
MLS Listing,Condo/Co-op,9813 Walnut St #208,Dallas,TX,75243,70000,1,1,Richland Trace Condos,683,383938,1981,2,102,194,Active,,,http://www.redfin.com/TX/Dallas/9813-Walnut-St-75243/unit-208/home/31182155,NTREIS,14663592,N,Y,32.9222479,-96.7160049
MLS Listing,Vacant Land,2719 Lawrence St,Dallas,TX,75215,59000,0,,Lomas Park,,7667,,2,,,Active,,,http://www.redfin.com/TX/Dallas/2719-Lawrence-St-75215/home/30816210,NTREIS,14669040,N,Y,32.754868,-96.753411
MLS Listing,Single Family Residential,,Fort Worth,TX,76119,185000,3,1,Denman Roy T Sub,988,7579,1951,2,187,,Active,,,http://www.redfin.com/TX/Fort-Worth/Undisclosed-address-76119/home/31514230,NTREIS,14668975,N,Y,32.6938976,-97.2759707
MLS Listing,Single Family Residential,8550 C Gina Ln,Alvarado,TX,76009,429500,3,2,Homesteads Phase IV,2174,80586,2021,2,198,,Active,,,http://www.redfin.com/TX/Alvarado/8550-Gina-Ln-76009/home/174688618,NTREIS,14668976,N,Y,32.4800442,-97.1812086
MLS Listing,Single Family Residential,1393 Oak Hill Cir,Lewisville,TX,75067,445000,3,2.5,Oaks Of Bellaire Add,2311,11064,1994,2,193,10,Active,,,http://www.redfin.com/TX/Lewisville/1393-Oak-Hill-Cir-75067/home/33095657,NTREIS,14668856,N,Y,33.0312692,-97.0306666
MLS Listing,Single Family Residential,2010 Canterbury St,Irving,TX,75062,299000,4,2,Northgate West,1491,7710,1958,2,201,,Active,,,http://www.redfin.com/TX/Irving/2010-Canterbury-St-75062/home/31706305,NTREIS,14668673,N,Y,32.8533229,-96.9725688
MLS Listing,Multi-Family (2-4 Unit),10644 Pagewood Dr,Dallas,TX,75230,579000,5,3.5,Crest Meadow Estates,3010,5489,1972,2,192,,Active,,,http://www.redfin.com/TX/Dallas/10644-Pagewood-Dr-75230/home/30992748,NTREIS,14665847,N,Y,32.8914134,-96.7804231
MLS Listing,Single Family Residential,4704 Almena Rd,River Oaks,TX,76114,189000,2,1,Rockwood Terrace Add,846,7623,1942,2,223,,Active,,,http://www.redfin.com/TX/River-Oaks/4704-Almena-Rd-76114/home/31982962,NTREIS,14668584,N,Y,32.7821616,-97.3897939
MLS Listing,Single Family Residential,17912 Benchmark Dr,Dallas,TX,75252,565000,3,2.5,Villages At Frankford Ph I,2992,7405,1996,2,189,58,Active,,,http://www.redfin.com/TX/Dallas/17912-Benchmark-Dr-75252/home/32211167,NTREIS,14669013,N,Y,32.9960745,-96.7733447
MLS Listing,Single Family Residential,6811 Hodde St,Dallas,TX,75217,245000,3,2,Pleasant Manor,1200,7754,1959,2,204,,Active,,,http://www.redfin.com/TX/Dallas/6811-Hodde-St-75217/home/30918261,NTREIS,14669012,N,Y,32.7225551,-96.7044392
MLS Listing,Single Family Residential,2510 Eagles Nest Ct,Midlothian,TX,76065,817000,4,3.5,Eagles Nest Estate,3463,67082,1986,2,236,35,Active,,,http://www.redfin.com/TX/Midlothian/2510-Eagles-Nest-Ct-76065/home/33684889,NTREIS,14668925,N,Y,32.5085751,-96.9302705
MLS Listing,Single Family Residential,2033 Statler Dr,Carrollton,TX,75007,285000,3,2,Rollingwood Estate 4,1536,9235,1973,2,186,,Active,,,http://www.redfin.com/TX/Carrollton/2033-Statler-Dr-75007/home/32968395,NTREIS,14669000,N,Y,32.9920847,-96.8839219
MLS Listing,Single Family Residential,4495 Hartebeest Trl,Frisco,TX,75034,639990,4,3.5,Kingswood Village Ph 3,3735,8059,2016,2,171,73,Active,,,http://www.redfin.com/TX/Frisco/4495-Hartebeest-Trl-75034/home/109685487,NTREIS,14668773,N,Y,33.1164134,-96.8647423
MLS Listing,Single Family Residential,5162 Yolanda Ln,Dallas,TX,75229,1995000,5,5,Lobello Estates,5260,52272,1948,2,379,,Active,,,http://www.redfin.com/TX/Dallas/5162-Yolanda-Ln-75229/home/30878497,NTREIS,14667708,N,Y,32.8878256,-96.818248
MLS Listing,Condo/Co-op,3329 Prescott Ave,Dallas,TX,75219,369500,2,2.5,Park Place Twnhms,1355,110250,1968,2,273,821,Active,,,http://www.redfin.com/TX/Dallas/3329-Prescott-Ave-75219/home/30810449,NTREIS,14668893,N,Y,32.8178703,-96.8156191
MLS Listing,Single Family Residential,6206 Hidden Springs Ln,Garland,TX,75044,485000,6,3.5,Big Spgs Court,3490,9148,1996,2,139,,Active,,,http://www.redfin.com/TX/Garland/6206-Hidden-Springs-Ln-75044/home/31351811,NTREIS,14644671,N,Y,32.9718976,-96.6810624
MLS Listing,Single Family Residential,3217 Galahad Dr,Dallas,TX,75229,575000,4,3,Sparkman Club Estates,2312,10149,1960,2,249,50,Active,,,http://www.redfin.com/TX/Dallas/3217-Galahad-Dr-75229/home/30930630,NTREIS,14667884,N,Y,32.8906862,-96.8692987
MLS Listing,Vacant Land,4535 Luzon St,Dallas,TX,75216,55000,0,,Central Ave,,7144,,2,,,Active,,,http://www.redfin.com/TX/Dallas/4535-Luzon-St-75216/home/31041057,NTREIS,14668989,N,Y,32.709998,-96.745546
MLS Listing,Single Family Residential,2628 Silverthorne Dr,Dallas,TX,75287,285000,3,2,Morningside 4 Ph A,1335,4879,1984,2,213,,Active,,,http://www.redfin.com/TX/Dallas/2628-Silverthorne-Dr-75287/home/33077293,NTREIS,14668395,N,Y,32.9960957,-96.8691311
MLS Listing,Single Family Residential,9020 Puerto Vista Dr,Fort Worth,TX,76179,260000,3,2,Parks At Boat Club The,1533,5793,2011,2,170,51,Active,,,http://www.redfin.com/TX/Fort-Worth/9020-Puerto-Vista-Dr-76179/home/31308669,NTREIS,14668899,N,Y,32.8856593,-97.4121105
MLS Listing,Single Family Residential,9517 Lindenwood Trl,Denton,TX,76207,399900,2,2,Robson Ranch 2 Ph 2,1586,7100,2005,2,252,285,Active,,,http://www.redfin.com/TX/Denton/9517-Lindenwood-Trl-76207/home/32513532,NTREIS,14668388,N,Y,33.1358965,-97.2296187
MLS Listing,Single Family Residential,1902 Baywood Ln,Arlington,TX,76014,249900,3,2,Brandyridge,1455,7187,1979,2,172,,Active,,,http://www.redfin.com/TX/Arlington/1902-Baywood-Ln-76014/home/31416471,NTREIS,14668979,N,Y,32.68597,-97.0801198
MLS Listing,Single Family Residential,1414 Sandpiper Ct,Grapevine,TX,76051,419900,3,2,Lakewood Acres Add,1711,12153,1985,2,245,,Active,,,http://www.redfin.com/TX/Grapevine/1414-Sandpiper-Ct-76051/home/31736926,NTREIS,14668805,N,Y,32.9552748,-97.0701595
MLS Listing,Single Family Residential,9705 Caruth Ct,Fort Worth,TX,76131,496000,5,3.5,Richmond Add,3523,7405,2017,2,141,53,Active,,,http://www.redfin.com/TX/Fort-Worth/9705-Caruth-Ct-76131/home/113005229,NTREIS,14665806,N,Y,32.911409,-97.354655
MLS Listing,Single Family Residential,323 Meadowcrest Dr,Richardson,TX,75080,825000,5,3,Canyon Park Estates,3214,11238,1970,2,257,3,Active,,,http://www.redfin.com/TX/Richardson/323-Meadowcrest-Dr-75080/home/31921527,NTREIS,14666990,N,Y,32.9832931,-96.7237906
MLS Listing,Single Family Residential,300 Boulder Ct,Burleson,TX,76028,150000,3,2,Summercrest,1043,10803,1970,2,144,,Active,,,http://www.redfin.com/TX/Burleson/300-Boulder-Ct-76028/home/33641783,NTREIS,14668559,N,Y,32.5394404,-97.3384275
MLS Listing,Single Family Residential,2217 Oak Forest Dr,Garland,TX,75042,419000,4,2.5,Creekside Village 01,3148,8146,1997,2,133,30,Active,,,http://www.redfin.com/TX/Garland/2217-Oak-Forest-Dr-75042/home/31372973,NTREIS,14668101,N,Y,32.9259606,-96.6616821
MLS Listing,Single Family Residential,1121 Ovilla Rd,Waxahachie,TX,75167,399900,3,2,Mid-Villa Ests- Rev,1745,44736,1997,2,229,,Active,,,http://www.redfin.com/TX/Waxahachie/1121-Ovilla-Rd-75167/home/33619201,NTREIS,14667584,N,Y,32.4942427,-96.8913814
MLS Listing,Single Family Residential,3916 Madrid Dr,Fort Worth,TX,76133,257500,3,2,Wedgwood Add,1900,10759,1974,2,136,,Active,,,http://www.redfin.com/TX/Fort-Worth/3916-Madrid-Dr-76133/home/32166602,NTREIS,14655463,N,Y,32.647505,-97.3780568
MLS Listing,Single Family Residential,3810 Columbus Dr,McKinney,TX,75070,375000,3,2,Eldorado Heights C1 Ph 1,1912,5227,1997,2,196,13,Active,,,http://www.redfin.com/TX/McKinney/3810-Columbus-Dr-75070/home/32241593,NTREIS,14653180,N,Y,33.1599285,-96.673815
MLS Listing,Single Family Residential,1510 Alberi Dr,Euless,TX,76039,379900,3,2.5,Forest Pointe Estates,2126,5663,1998,2,179,130,Active,,,http://www.redfin.com/TX/Euless/1510-Alberi-Dr-76039/home/32427840,NTREIS,14668507,N,Y,32.8583081,-97.0742779
MLS Listing,Single Family Residential,432 Willowlake Dr,Little Elm,TX,75068,295000,3,2,Lakewood Estates,1680,6098,2004,2,176,10,Active,,,http://www.redfin.com/TX/Little-Elm/432-Willowlake-Dr-75068/home/32539132,NTREIS,14668198,N,Y,33.1676387,-96.930411
MLS Listing,Single Family Residential,211 S Elm St,Keller,TX,76248,275000,4,2,12e,1197,9583,1971,2,230,,Active,,,http://www.redfin.com/TX/Keller/211-S-Elm-St-76248/home/32255450,NTREIS,14668201,N,Y,32.9304182,-97.251653
MLS Listing,Single Family Residential,9614 Preston Vineyard Dr,Frisco,TX,75035,415500,3,2,Preston Vineyards 01,2222,6098,1992,2,187,,Active,,,http://www.redfin.com/TX/Frisco/9614-Preston-Vineyard-Dr-75035/home/32054574,NTREIS,14668117,N,Y,33.1352732,-96.7986382
MLS Listing,Single Family Residential,2418 Courtland Dr,Arlington,TX,76017,349900,3,2,Wimbledon South Add,2387,9409,1979,2,147,,Active,,,http://www.redfin.com/TX/Arlington/2418-Courtland-Dr-76017/home/32291397,NTREIS,14667136,N,Y,32.6608762,-97.1490211
MLS Listing,Single Family Residential,714 Brookdale Cir,Garland,TX,75040,359000,3,2,Glenbrook Meadows Sec 04,1868,9278,1976,2,192,,Active,,,http://www.redfin.com/TX/Garland/714-Brookdale-Cir-75040/home/31396744,NTREIS,14668598,N,Y,32.9403716,-96.6366927
MLS Listing,Single Family Residential,1708 Wimbleton Dr,Bedford,TX,76021,600000,5,4,Bedford Estates Add,4298,23958,1979,2,140,8,Active,September-18-2021 12:00 PM,September-18-2021 03:00 PM,http://www.redfin.com/TX/Bedford/1708-Wimbleton-Dr-76021/home/31387880,NTREIS,14668100,N,Y,32.8622599,-97.1408594
MLS Listing,Single Family Residential,805 Savannah Way,Bedford,TX,76022,315000,4,2.5,Bell Manor,2210,8930,1964,2,143,,Active,,,http://www.redfin.com/TX/Bedford/805-Savannah-Way-76022/home/31394563,NTREIS,14668948,N,Y,32.8225631,-97.1363373
MLS Listing,Single Family Residential,117 N Texas St,Crowley,TX,76036,245000,3,2,Crowley Original Town,1410,16161,1965,2,174,,Active,,,http://www.redfin.com/TX/Crowley/117-N-Texas-St-76036/home/31508024,NTREIS,14614489,N,Y,32.5796,-97.3604444
MLS Listing,Single Family Residential,3412 Creston Ave,Fort Worth,TX,76133,270000,4,2,South Hills Add,1852,9670,1954,2,146,,Active,,,http://www.redfin.com/TX/Fort-Worth/3412-Creston-Ave-76133/home/32066275,NTREIS,14664108,N,Y,32.6766587,-97.3667439
MLS Listing,Single Family Residential,328 Blue Ribbon Rd,Waxahachie,TX,75165,1250000,3,2,Hart Farm Ph III,2759,1041084,1983,2,453,,Active,,,http://www.redfin.com/TX/Waxahachie/328-Blue-Ribbon-Rd-75165/home/33615764,NTREIS,14664597,N,Y,32.4490068,-96.745343
MLS Listing,Single Family Residential,908 Pecan Trl,Cedar Hill,TX,75104,265000,3,2,Cedar Trail Estates,2238,6882,2002,2,118,,Active,,,http://www.redfin.com/TX/Cedar-Hill/908-Pecan-Trl-75104/home/30732384,NTREIS,14662517,N,Y,32.5728187,-96.9551781
MLS Listing,Single Family Residential,3322 30th St,Fort Worth,TX,76106,160000,3,1,Rosen Heights Second Filing,1000,7405,1953,2,160,,Active,,,http://www.redfin.com/TX/Fort-Worth/3322-NW-30th-St-76106/home/32002914,NTREIS,14668888,N,Y,32.8099895,-97.3840095
MLS Listing,Condo/Co-op,6269 Oram St #27,Dallas,TX,75214,524900,2,2.5,Regency Lakewood Condo,2472,66908,2006,2,212,,Active,,,http://www.redfin.com/TX/Dallas/6269-Oram-St-75214/unit-27/home/30789316,NTREIS,14668470,N,Y,32.8139999,-96.7557642
MLS Listing,Single Family Residential,714 San Benito,Irving,TX,75039,650000,4,3.5,La Villita Ph 1d,3691,6142,2007,2,176,67,Active,,,http://www.redfin.com/TX/Irving/714-San-Benito-75039/home/30772542,NTREIS,14668816,N,Y,32.9043871,-96.9354853
MLS Listing,Townhouse,8627 Dynasty Ln,Frisco,TX,75034,436990,2,2.5,Villages of Majestic Gardens,1840,2222,2021,2,237,220,Active,,,http://www.redfin.com/TX/FRISCO/8627-DYNASTY-LN-75034/home/167524440,NTREIS,14666021,N,Y,33.150044,-96.857469
MLS Listing,Townhouse,1369 Ethan Dr,Flower Mound,TX,75028,430990,3,2.5,Villas at Southgate Townhomes,1660,1917,2021,2,260,227,Active,,,http://www.redfin.com/TX/Flower-Mound/1369-Ethan-DR-75028/home/176358613,NTREIS,14668128,N,Y,32.989365,-97.045761
MLS Listing,Single Family Residential,4404 Owendale Dr,Benbrook,TX,76116,200000,3,2,Glen Avon Add,1674,11021,1977,2,119,,Active,,,http://www.redfin.com/TX/Benbrook/4404-Owendale-Dr-76116/home/31600371,NTREIS,14668060,N,Y,32.7082079,-97.4609771
MLS Listing,Single Family Residential,515 N Oak Cliff Blvd,Dallas,TX,75208,389900,2,1,Daniels L O Jr,1436,7057,1941,2,272,,Active,,,http://www.redfin.com/TX/Dallas/515-N-Oak-Cliff-Blvd-75208/home/30847300,NTREIS,14668644,N,Y,32.7491188,-96.8529943
MLS Listing,Single Family Residential,7232 Long Canyon Trl,Dallas,TX,75249,245000,4,2,Woods,1760,6839,1977,2,139,,Active,,,http://www.redfin.com/TX/Dallas/7232-Long-Canyon-Trl-75249/home/31115192,NTREIS,14668068,N,Y,32.6405004,-96.9507524
MLS Listing,Multi-Family (2-4 Unit),2645 Forest Grove Dr,Richardson,TX,75080,849000,5,4,Canyon Creek Country Club 14,3980,17860,1968,2,213,,Active,,,http://www.redfin.com/TX/Richardson/2645-Forest-Grove-Dr-75080/home/31857751,NTREIS,14667649,N,Y,32.9918815,-96.7252534
MLS Listing,Single Family Residential,16596 Hunters Xing,Wildwood,MO,76040,299900,4,2.5,Hunters Crossing,2265,,1988,2,132,83,Active,,,http://www.redfin.com/MO/Wildwood/16596-Hunters-XING-76040/home/176360018,MARIS,21065262,N,Y,32.8215989,-97.150006
MLS Listing,Single Family Residential,5237 Memorial Dr,Fort Worth,TX,76244,435000,5,2.5,Wilshire Valley,3605,6621,2006,2,121,28,Active,,,http://www.redfin.com/TX/Keller/5237-Memorial-Dr-76244/home/31098747,NTREIS,14652232,N,Y,32.9181456,-97.2703014
MLS Listing,Single Family Residential,9635 Millridge Dr,Dallas,TX,75243,525000,4,2.5,Frst Meadows Sec 02,2447,9017,1970,2,215,,Active,,,http://www.redfin.com/TX/Dallas/9635-Millridge-Dr-75243/home/31070462,NTREIS,14660900,N,Y,32.904453,-96.7293714
MLS Listing,Single Family Residential,2717 Elk Grove Rd,Carrollton,TX,75007,220000,3,2,Rollingwood Estate 3,1385,9409,1973,2,159,,Active,,,http://www.redfin.com/TX/Carrollton/2717-Elk-Grove-Rd-75007/home/32972503,NTREIS,14650507,N,Y,32.9897266,-96.8877773
MLS Listing,Vacant Land,6700 MEADOW Rd,North Richland Hills,TX,76182,179000,0,,Tivoli Garden Estates,,16117,,2,,,Active,,,http://www.redfin.com/TX/North-Richland-Hills/6700-Meadow-Rd-76182/home/173906986,NTREIS,14668913,N,Y,32.867831,-97.220381
MLS Listing,Single Family Residential,6005 Andrews Way,Flower Mound,TX,75028,495000,2,2.5,Legends Add,2188,6752,2016,2,226,233,Active,,,http://www.redfin.com/TX/Flower-Mound/6005-Andrews-Way-75028/home/109674759,NTREIS,14659835,N,Y,33.0671906,-97.0854157
MLS Listing,Single Family Residential,6325 Wallingford Dr,Fort Worth,TX,76133,350000,4,2,Wedgwood Add,2103,12066,1967,3,166,,Active,,,http://www.redfin.com/TX/Fort-Worth/6325-Wallingford-Dr-76133/home/32164100,NTREIS,14668901,N,Y,32.6525595,-97.3887222
MLS Listing,Single Family Residential,7705 Ridgebluff Ln,Sachse,TX,75048,620000,4,4,Woodbridge Ph 19,3608,9627,2016,3,172,40,Active,,,http://www.redfin.com/TX/Sachse/7705-Ridgebluff-Ln-75048/home/110180983,NTREIS,14668543,N,Y,32.9913265,-96.5940642
MLS Listing,Single Family Residential,12205 Grosbeak Dr,Denton,TX,76207,650000,2,2.5,Robson Ranch Unit 18-2a,2528,8843,2018,3,257,285,Active,,,http://www.redfin.com/TX/Denton/12205-Grosbeak-Dr-76207/home/144102575,NTREIS,14663961,N,Y,33.1469633,-97.2532015
MLS Listing,Single Family Residential,1925 Meridian Way,Garland,TX,75040,254900,3,2,Northlake Estates,1275,7536,1975,3,200,,Active,,,http://www.redfin.com/TX/Garland/1925-Meridian-Way-75040/home/31442357,NTREIS,14668896,N,Y,32.921891,-96.6041397
MLS Listing,Single Family Residential,9816 Pack Saddle Trl,Fort Worth,TX,76108,330000,4,3.5,Legacy Square Add,2553,4792,2001,3,129,,Active,,,http://www.redfin.com/TX/Fort-Worth/9816-Pack-Saddle-Trl-76108/home/32487055,NTREIS,14668790,N,Y,32.7623388,-97.489471
MLS Listing,Condo/Co-op,8645 Gracewood Dr,McKinney,TX,75070,369500,2,2,Retreat At Craig Ranch The,1826,4356,2014,3,202,433,Active,,,http://www.redfin.com/TX/McKinney/8645-Gracewood-Dr-75070/home/110172613,NTREIS,14637060,N,Y,33.1487957,-96.7290253
MLS Listing,Single Family Residential,3518 S Versailles Ave,Dallas,TX,75209,435000,2,1,Lafoy Place,1111,7231,1946,3,392,,Active,,,http://www.redfin.com/TX/Dallas/3518-S-Versailles-Ave-75209/home/30815747,NTREIS,14666874,N,Y,32.8279842,-96.8228448
MLS Listing,Single Family Residential,15169 Wild Duck Way,Fort Worth,TX,76262,550000,4,3.5,Seventeen Lakes Add,3288,6360,2012,3,167,60,Active,,,http://www.redfin.com/TX/Roanoke/15169-Wild-Duck-Way-76262/home/32642865,NTREIS,14668339,N,Y,33.0031275,-97.2613874
MLS Listing,Single Family Residential,1846 Nomas St,Dallas,TX,75212,849900,5,4,Victory Gardens,3194,7841,2020,3,266,,Active,,,http://www.redfin.com/TX/Dallas/1846-Nomas-St-75212/home/30976063,NTREIS,14668872,N,Y,32.780773,-96.850126
MLS Listing,Single Family Residential,441 Ashley Pl,Murphy,TX,75094,549000,4,3.5,Windy Hill Farms Ph 4,3435,9148,2001,3,160,41,Active,,,http://www.redfin.com/TX/Murphy/441-Ashley-Pl-75094/home/32275727,NTREIS,14668880,N,Y,33.0168292,-96.623607
MLS Listing,Single Family Residential,6125 Forest Highlands Dr,Fort Worth,TX,76132,1650000,6,5,Mira Vista Add,7041,22085,1993,3,234,220,Active,,,http://www.redfin.com/TX/Fort-Worth/6125-Forest-Highlands-Dr-76132/home/32395412,NTREIS,14668866,N,Y,32.661806,-97.4354525
MLS Listing,Single Family Residential,659 E Sandra Ln,Grand Prairie,TX,75052,470000,4,4.5,Polo Heights Ph 01,3894,11282,2003,3,121,15,Active,,,http://www.redfin.com/TX/Grand-Prairie/659-Sandra-Ln-75052/home/32266821,NTREIS,14659702,N,Y,32.6543441,-96.99689
MLS Listing,Single Family Residential,3741 O Henry Dr,Garland,TX,75042,250000,3,2,Skillman Forest Park 06,1372,8930,1971,3,182,,Active,,,http://www.redfin.com/TX/Garland/3741-O-Henry-Dr-75042/home/31480566,NTREIS,14668878,N,Y,32.9262209,-96.6879973
MLS Listing,Single Family Residential,9109 Windsor Dr,Little Elm,TX,75068,320000,4,2,Wellington Trace Ph 1,2097,7144,2007,3,153,15,Active,,,http://www.redfin.com/TX/Little-Elm/9109-Windsor-Dr-75068/home/32557459,NTREIS,14668091,N,Y,33.1639594,-96.9786745
MLS Listing,Single Family Residential,4267 Maryanne Pl,Haltom City,TX,76137,275000,4,2,Fossil Village Add,1817,4225,1993,3,151,,Active,,,http://www.redfin.com/TX/Haltom-City/4267-Maryanne-Pl-76137/home/32356452,NTREIS,14668804,N,Y,32.8540574,-97.2819566
MLS Listing,Single Family Residential,3742 O Henry Dr,Garland,TX,75042,289000,4,2,Skillman Forest Park 06,1841,9801,1972,3,157,,Active,,,http://www.redfin.com/TX/Garland/3742-O-Henry-Dr-75042/home/31480964,NTREIS,14668875,N,Y,32.9257618,-96.6879764
MLS Listing,Vacant Land,11633 Hardwood Ct,Fort Worth,TX,76135,140000,0,,Ranchoaks Add,,19950,,3,,,Active,,,http://www.redfin.com/TX/Fort-Worth/11633-Hardwood-Ct-76135/home/32367118,NTREIS,14661790,N,Y,32.8533865,-97.5236894
MLS Listing,Single Family Residential,3536 Silverhill Dr,Dallas,TX,75241,195000,4,1.5,Highland Hills 09,1240,7057,1969,3,157,,Active,,,http://www.redfin.com/TX/Dallas/3536-Silverhill-Dr-75241/home/31089946,NTREIS,14667940,N,Y,32.6645983,-96.7621342
MLS Listing,Single Family Residential,3543 Avenue  J Unit A-B,Fort Worth,TX,76105,350000,0,2.5,Polytechnic Heights Add,2000,6273,2022,3,175,,Active,,,http://www.redfin.com/TX/Fort-Worth/3543-Avenue-J-76105/unit-A-B/home/31913945,NTREIS,14668870,N,Y,32.7272364,-97.2731465
MLS Listing,Single Family Residential,1610 Presidio Ave,Dallas,TX,75216,284900,4,2,Liberty Heights,1715,9148,2021,3,166,,Active,,,http://www.redfin.com/TX/Dallas/1610-Presidio-Ave-75216/home/30839650,NTREIS,14668450,N,Y,32.703812,-96.803048
MLS Listing,Single Family Residential,6406 Teresa Ln,Rowlett,TX,75089,479500,3,2.5,Lakehill Add Ph 1,2596,10411,2018,3,185,46,Active,,,http://www.redfin.com/TX/Rowlett/6406-Teresa-Ln-75089/home/44609515,NTREIS,14666975,N,Y,32.9175861,-96.5843656
MLS Listing,Single Family Residential,2503 Kirkley St,Dallas,TX,75241,284900,4,2,Alameda Heights,1715,7405,2021,3,166,,Active,,,http://www.redfin.com/TX/Dallas/2503-Kirkley-St-75241/home/30948838,NTREIS,14668483,N,Y,32.668481,-96.781049
MLS Listing,Single Family Residential,6112 Oakcrest Rd,Dallas,TX,75248,945000,4,3,Prestonwood Creek,3977,16248,1982,3,238,,Active,,,http://www.redfin.com/TX/Dallas/6112-Oakcrest-Rd-75248/home/31111325,NTREIS,14663851,N,Y,32.9696358,-96.8008982
MLS Listing,Single Family Residential,4201 Harvest Point Dr,Carrollton,TX,75010,371000,3,2,Harvest Run Ph 1,1859,8407,1986,3,200,,Active,,,http://www.redfin.com/TX/Carrollton/4201-Harvest-Point-Dr-75010/home/32750420,NTREIS,14668862,N,Y,33.0278388,-96.8690473
MLS Listing,Single Family Residential,616 Peach Ln,Burleson,TX,76028,330000,3,2,Mistletoe Hill Ph VI & Vii,2534,8102,2014,3,130,28,Active,,,http://www.redfin.com/TX/Burleson/616-Peach-Ln-76028/home/67279993,NTREIS,14665347,N,Y,32.57083,-97.3359382
MLS Listing,Single Family Residential,2014 Hollow Way,Garland,TX,75041,399900,3,2,Creek Vly Add 1,2257,7187,2007,3,177,,Active,,,http://www.redfin.com/TX/Garland/2014-Hollow-Way-75041/home/30749753,NTREIS,14668859,N,Y,32.8925958,-96.6109828
MLS Listing,Single Family Residential,5603 Euclid Dr,Arlington,TX,76013,475000,5,3.5,Mc Kamy Lakes Estates,3101,9104,1983,3,153,,Active,,,http://www.redfin.com/TX/Arlington/5603-Euclid-Dr-76013/home/31811814,NTREIS,14667876,N,Y,32.7100233,-97.1923705
MLS Listing,Single Family Residential,4941 Breezy Hill St,Midlothian,TX,76065,300000,3,1,Skyline Acres - Rev,1940,42340,2006,3,155,,Active,,,http://www.redfin.com/TX/Midlothian/4941-Breezy-Hill-St-76065/home/33650084,NTREIS,14668855,N,Y,32.5373641,-96.9808568
MLS Listing,Single Family Residential,1 Laureston Pl,Dallas,TX,75225,1375000,4,4,Glen Lakes 02 Rev,4087,6186,1983,3,336,595,Active,,,http://www.redfin.com/TX/Dallas/1-Laureston-Pl-75225/home/30872639,NTREIS,14668807,N,Y,32.8782815,-96.7753575
MLS Listing,Vacant Land,4110 Hamilton Ave,Dallas,TX,75210,75000,0,,Camps Alex,,6360,,3,,,Active,,,http://www.redfin.com/TX/Dallas/4110-Hamilton-Ave-75210/home/30804939,NTREIS,14668664,N,Y,32.7748108,-96.7509988
MLS Listing,Single Family Residential,1506 Sunnyslope Dr,Carrollton,TX,75007,330000,4,2,Rosemeade Add 8,2287,7797,1983,3,144,,Active,,,http://www.redfin.com/TX/Carrollton/1506-Sunnyslope-Dr-75007/home/33073016,NTREIS,14668851,N,Y,33.0009492,-96.9041651
MLS Listing,Single Family Residential,6615 Rolling Vista Dr,Dallas,TX,75248,630000,4,3.5,Prestonwood,3910,14026,1974,3,161,,Active,,,http://www.redfin.com/TX/Dallas/6615-Rolling-Vista-Dr-75248/home/31077690,NTREIS,14662563,N,Y,32.951756,-96.7962109
MLS Listing,Single Family Residential,10420 Barbuda Trl,Fort Worth,TX,76244,489000,4,2.5,Sanctuary At Bear Creek,2811,6534,2016,3,174,63,Active,,,http://www.redfin.com/TX/Keller/10420-Barbuda-Trl-76244/home/104233781,NTREIS,14666420,N,Y,32.9270504,-97.2729415
MLS Listing,Single Family Residential,6218 Georgian Ct,Dallas,TX,75254,2995000,6,7.5,Williamsburg At Preston,9041,60984,1986,3,331,16,Active,,,http://www.redfin.com/TX/Dallas/6218-Georgian-Ct-75254/home/31073691,NTREIS,14661758,N,Y,32.9414884,-96.7997263
MLS Listing,Single Family Residential,4201 Comanche St,Fort Worth,TX,76119,119500,3,1,Whitehall Add,1206,6011,1954,3,99,,Active,,,http://www.redfin.com/TX/Fort-Worth/4201-Comanche-St-76119/home/32193391,NTREIS,14668850,N,Y,32.7086234,-97.2626939
MLS Listing,Single Family Residential,8725 County Road 109,Alvarado,TX,76009,306500,5,3,Jessie Billingsley Survey,2128,116697,1998,3,144,,Active,,,http://www.redfin.com/TX/Alvarado/8725-County-Rd-109-76009/home/33599895,NTREIS,14668848,N,Y,32.4016029,-97.1781211
MLS Listing,Single Family Residential,3105 Dupree St,Irving,TX,75062,287500,4,2,Freeway Park 02,1541,7013,1961,3,187,,Active,,,http://www.redfin.com/TX/Irving/3105-Dupree-St-75062/home/31660760,NTREIS,14668806,N,Y,32.8486617,-96.9795925
MLS Listing,Single Family Residential,6660 Marble Way,Midlothian,TX,76065,733000,4,3,Mcalpin Manor Ph 2,3138,47175,2017,3,234,29,Active,,,http://www.redfin.com/TX/Midlothian/6660-Marble-Way-76065/home/110014612,NTREIS,14658930,N,Y,32.4100769,-96.9655826
MLS Listing,Single Family Residential,2300 Westbrook Ave,Fort Worth,TX,76111,299900,2,1,Adams Sub,1480,13678,1950,3,203,,Active,,,http://www.redfin.com/TX/Fort-Worth/2300-Westbrook-Ave-76111/home/31363514,NTREIS,14667988,N,Y,32.779162,-97.3132017
MLS Listing,Single Family Residential,840 Meadow Lark Ln,Red Oak,TX,75154,340000,4,2,Rock Creek Estates #3,1995,43996,2003,3,170,,Active,,,http://www.redfin.com/TX/Red-Oak/840-Meadow-Lark-Ln-75154/home/33624560,NTREIS,14662914,N,Y,32.5161074,-96.7378793
MLS Listing,Single Family Residential,321 Independence Dr,Garland,TX,75043,240000,3,2,Meadowcreek Park Sec 09,1271,8015,1971,3,189,,Active,,,http://www.redfin.com/TX/Garland/321-Independence-Dr-75043/home/31423594,NTREIS,14665526,N,Y,32.867575,-96.6201846
MLS Listing,Single Family Residential,6233 Sherbert,North Richland Hills,TX,76180,505000,3,3,127-1,2702,6055,2007,3,187,220,Active,,,http://www.redfin.com/TX/North-Richland-Hills/6233-Sherbert-Dr-76180/home/147427308,NTREIS,14668683,N,Y,32.858632,-97.208846
MLS Listing,Single Family Residential,848 Poncho Ln,Haslet,TX,76052,292000,4,2,Sendera Ranch East,1964,5489,2006,3,149,46,Active,,,http://www.redfin.com/TX/Haslet/848-Poncho-Ln-76052/home/31104846,NTREIS,14665688,N,Y,32.987215,-97.3767481
MLS Listing,Single Family Residential,2613 Hollandale Cir,Arlington,TX,76010,214000,3,2,Hollandale East Add,1284,7187,1962,3,167,,Active,,,http://www.redfin.com/TX/Arlington/2613-Hollandale-Cir-76010/home/32297547,NTREIS,14664502,N,Y,32.7324498,-97.0615452
MLS Listing,Single Family Residential,1 Easy St,Hickory Creek,TX,75065,475000,6,3,Lakewood Gardens,3152,9932,1977,3,151,,Active,,,http://www.redfin.com/TX/Lake-Dallas/1-Easy-St-75065/home/32993993,NTREIS,14655392,N,Y,33.1065723,-97.0162233
MLS Listing,Single Family Residential,1554 Russell Glen Ln,Dallas,TX,75232,395000,4,3,Highland Oaks 04 Inst 05,2709,27312,1968,3,146,,Active,,,http://www.redfin.com/TX/Dallas/1554-Russell-Glen-Ln-75232/home/30903368,NTREIS,14660487,N,Y,32.6775774,-96.8480402
